id,postcode,locality,state,long,lat,dc,type,status,sa3,sa3name,sa4,sa4name,region,Lat_precise,Long_precise,SA1_MAINCODE_2011,SA1_MAINCODE_2016,SA2_MAINCODE_2016,SA2_NAME_2016,SA3_CODE_2016,SA3_NAME_2016,SA4_CODE_2016,SA4_NAME_2016,RA_2011,RA_2016,MMM_2015,MMM_2019,ced,altitude,chargezone,phn_code,phn_name,lgaregion,lgacode,electorate,electoraterating
230,200,ANU,ACT,149.119,-35.2777,,,Updated 3-Dec-2022,,,,,R1,-35.2777,149.119,80105104901.0,80105104901.0,801051049.0,Acton,80105.0,North Canberra,801.0,Australian Capital Territory,1.0,1.0,1.0,1.0,,,N2,,,Unincorporated ACT,89399.0,Durack,
232,800,DARWIN,NT,130.83668,-12.458684,,,Updated 3-Dec-2022,70101.0,Darwin City,701.0,Darwin,R1,-12.3932794,130.7766611,70101100203.0,70101100218.0,701011002.0,Darwin City,70101.0,Darwin City,701.0,Darwin,3.0,3.0,2.0,2.0,,,NT1,PHN701,Northern Territory,Darwin Waterfront Precinct,71150.0,Solomon,Inner Metropolitan
233,801,DARWIN,NT,130.83668,-12.458684,,,Updated 3-Dec-2022,70101.0,Darwin City,701.0,Darwin,R1,-12.4634403,130.8456418,70101100208.0,70101100208.0,701011002.0,Darwin City,70101.0,Darwin City,701.0,Darwin,3.0,3.0,2.0,2.0,,,NT1,PHN701,,Darwin Waterfront Precinct,71150.0,Lingiari,Rural
24055,803,WAGAIT BEACH,NT,0.0,0.0,,Post Office Boxes,Updated 3-Dec-2022,70205.0,Katherine,702.0,Northern Territory - Outback,R1,0.0,0.0,,,,,,,,,,,,,,,,,,,,,
234,804,PARAP,NT,130.873315,-12.428017,,,Updated 3-Dec-2022,70102.0,Darwin Suburbs,701.0,Darwin,R1,-12.4324801,130.8462536,70101100704.0,70101100704.0,701011007.0,Parap,70101.0,Darwin City,701.0,Darwin,3.0,3.0,2.0,2.0,,,NT1,PHN701,,Darwin,71000.0,Durack,
235,810,ALAWA,NT,130.866242,-12.381806,,,Updated 3-Dec-2022,70102.0,Darwin Suburbs,701.0,Darwin,R1,-12.38,130.873,70102101001.0,70102101001.0,701021010.0,Alawa,70102.0,Darwin Suburbs,701.0,Darwin,3.0,3.0,2.0,2.0,,9.22142887115479,NT1,PHN701,Northern Territory,Darwin,71000.0,Solomon,Inner Metropolitan
249,811,CASUARINA,NT,130.866242,-12.381806,,,Updated 3-Dec-2022,70102.0,Darwin Suburbs,701.0,Darwin,R1,-12.373333,130.881667,70102101307.0,70102101307.0,701021013.0,Brinkin - Nakara,70102.0,Darwin Suburbs,701.0,Darwin,3.0,3.0,2.0,2.0,,9.22142887115479,NT1,PHN502,,Darwin,71000.0,Durack,
19975,812,ANULA,NT,130.89047,-12.39124885,Northern Territory Country 1,Delivery Area,Updated 3-Dec-2022,70102.0,Darwin Suburbs,701.0,Darwin,R1,-12.3928,130.89,70102101104.0,70102101104.0,701021011.0,Anula,70102.0,Darwin Suburbs,701.0,Darwin,3.0,3.0,2.0,2.0,,4.40720176696777,NT1,PHN701,Northern Territory,Darwin,71000.0,Solomon,Inner Metropolitan
24056,813,KARAMA,NT,130.916098,-12.404778,,Post Office Boxes,Updated 3-Dec-2022,70102.0,Darwin Suburbs,701.0,Darwin,R1,-19.4914,132.551,70202105501.0,70202105501.0,702021055.0,Barkly,70202.0,Barkly,702.0,Northern Territory - Outback,5.0,5.0,7.0,7.0,,,,,,Darwin,71000.0,,
260,814,NIGHTCLIFF,NT,130.866242,-12.381806,,,Updated 3-Dec-2022,70102.0,Darwin Suburbs,701.0,Darwin,R1,-12.383,130.849,70102102509.0,70102102509.0,701021025.0,Nightcliff,70102.0,Darwin Suburbs,701.0,Darwin,3.0,3.0,2.0,2.0,,9.22142887115479,NT1,PHN701,,Darwin,71000.0,Durack,
261,815,CHARLES DARWIN UNIVERSITY,NT,130.869,-12.3718,,,Updated 3-Dec-2022,70102.0,Darwin Suburbs,701.0,Darwin,R1,-12.3718,130.869,70102101301.0,70102101301.0,701021013.0,Brinkin - Nakara,70102.0,Darwin Suburbs,701.0,Darwin,3.0,3.0,2.0,2.0,,16.6437168121338,NT1,PHN701,Northern Territory,Darwin,71000.0,Solomon,
262,820,BAGOT,NT,130.873315,-12.428017,,,Updated 3-Dec-2022,70102.0,Darwin Suburbs,701.0,Darwin,R1,-12.411487,130.85541,70101100601.0,70101100601.0,701011006.0,Ludmilla - The Narrows,70101.0,Darwin City,701.0,Darwin,3.0,3.0,2.0,2.0,,24.7076091766357,NT1,PHN701,Northern Territory,Darwin,71000.0,Solomon,Inner Metropolitan
281,821,WINNELLIE,NT,136.947051,-13.643283,,,Updated 3-Dec-2022,70205.0,Katherine,702.0,Northern Territory - Outback,R1,-12.428889,130.869722,70101100906.0,70101100906.0,701011009.0,Woolner - Bayview - Winnellie,70101.0,Darwin City,701.0,Darwin,3.0,3.0,2.0,2.0,,5.12332391738892,NT1,PHN701,,East Arnhem,71300.0,Lingiari,Rural
282,822,ACACIA HILLS,NT,130.6254299,-11.75841975,,,Updated 3-Dec-2022,70205.0,Katherine,702.0,Northern Territory - Outback,R1,-12.7541536,131.1489404,70103103506.0,70103103513.0,701031035.0,Weddell,70103.0,Litchfield,701.0,Darwin,3.0,3.0,5.0,5.0,,5.12332391738892,NT1,PHN701,Northern Territory,Tiwi Islands,74050.0,Solomon,Inner Metropolitan
322,828,BERRIMAH,NT,130.932068,-12.432024,,,Updated 3-Dec-2022,70102.0,Darwin Suburbs,701.0,Darwin,R1,-12.433889,130.922778,70102101201.0,70102101209.0,701021012.0,Berrimah,70102.0,Darwin Suburbs,701.0,Darwin,3.0,3.0,2.0,2.0,,38.9476051330566,NT1,PHN701,Northern Territory,Darwin,71000.0,Solomon,Inner Metropolitan
24048,829,HOLTZE,NT,130.9597671,-12.45763297,Northern Territory Country 1,Delivery Area,Updated 3-Dec-2022,70104.0,Palmerston,701.0,Darwin,R1,-12.4587,130.961,70104103807.0,70104103807.0,701041038.0,Durack - Marlow Lagoon,70104.0,Palmerston,701.0,Darwin,3.0,3.0,2.0,2.0,,,NT1,PHN701,Northern Territory,Palmerston,72800.0,Solomon,Inner Metropolitan
20057,830,ARCHER,NT,130.9580765,-12.52139649,Northern Territory Country 1,Delivery Area,Updated 3-Dec-2022,70104.0,Palmerston,701.0,Darwin,R1,-12.5164,130.971,70104104201.0,70104104202.0,701041042.0,Palmerston - South,70104.0,Palmerston,701.0,Darwin,3.0,3.0,2.0,2.0,,7.41222524642944,NT1,PHN701,Northern Territory,Palmerston,72800.0,Solomon,Inner Metropolitan
336,831,PALMERSTON,NT,130.974879,-12.475071,,,Updated 3-Dec-2022,70104.0,Palmerston,701.0,Darwin,R1,-12.4784614,130.9851852,70104104110.0,70104104110.0,701041041.0,Palmerston - North,70104.0,Palmerston,701.0,Darwin,3.0,3.0,2.0,2.0,,18.1379375457764,NT1,PHN307,,Palmerston,72800.0,Solomon,Inner Metropolitan
20058,832,BAKEWELL,NT,130.9936551,-12.49684676,Northern Territory Country 1,Delivery Area,Updated 3-Dec-2022,70104.0,Palmerston,701.0,Darwin,R1,-12.4987,130.993,70104103606.0,70104103606.0,701041036.0,Bakewell,70104.0,Palmerston,701.0,Darwin,3.0,3.0,2.0,2.0,,27.3253059387207,NT1,PHN701,Northern Territory,Palmerston,72800.0,Solomon,Inner Metropolitan
20062,834,VIRGINIA,NT,131.0234875,-12.54686461,,Delivery Area,Updated 3-Dec-2022,70103.0,Litchfield,701.0,Darwin,R1,-12.5405,131.029,70103103406.0,70103103407.0,701031034.0,Virginia,70103.0,Litchfield,701.0,Darwin,3.0,3.0,2.0,2.0,,,NT1,PHN701,Northern Territory,Palmerston,72800.0,Lingiari,Rural
21821,835,Coolalinga,NT,131.0415,-12.5231,,,Updated 3-Dec-2022,70103.0,Litchfield,701.0,Darwin,R1,-12.5242,131.042,70103103404.0,70103103408.0,701031034.0,Virginia,70103.0,Litchfield,701.0,Darwin,3.0,3.0,2.0,2.0,,47.0682983398438,NT1,PHN701,Northern Territory,Palmerston,72800.0,Lingiari,Rural
24061,836,GIRRAWEEN,NT,131.0962,-12.5255,,Delivery Area,Updated 3-Dec-2022,70103.0,Litchfield,701.0,Darwin,R1,-12.542319,131.157189,70103103204.0,70103103223.0,701031032.0,Humpty Doo,70103.0,Litchfield,701.0,Darwin,3.0,3.0,5.0,2.0,,,,,,Litchfield,72300.0,,
347,837,MANTON,NT,131.016647,-12.704767,,,Updated 3-Dec-2022,70103.0,Litchfield,701.0,Darwin,R1,-12.8316015,131.1604226,70103103506.0,70103103513.0,701031035.0,Weddell,70103.0,Litchfield,701.0,Darwin,3.0,3.0,5.0,5.0,,26.6997928619385,NT1,PHN701,Northern Territory,Litchfield,72300.0,Lingiari,Rural
349,838,BERRY SPRINGS,NT,131.0067348,-12.71878122,,,Updated 3-Dec-2022,70103.0,Litchfield,701.0,Darwin,R1,-12.7174085,131.0192349,70103103503.0,70103103510.0,701031035.0,Weddell,70103.0,Litchfield,701.0,Darwin,3.0,3.0,2.0,2.0,,15.6139583587647,NT1,PHN701,Northern Territory,Litchfield,72300.0,Lingiari,Rural
20065,839,COOLALINGA,NT,131.0402017,-12.52001124,,Delivery Area,Updated 3-Dec-2022,70103.0,Litchfield,701.0,Darwin,R1,-12.5188645,131.0406631,70103103404.0,70103103408.0,701031034.0,Virginia,70103.0,Litchfield,701.0,Darwin,3.0,3.0,2.0,2.0,,43.101921081543,NT1,PHN701,Northern Territory,Palmerston,72800.0,Lingiari,Rural
350,840,DUNDEE BEACH,NT,130.3529386,-12.72451307,,,Updated 3-Dec-2022,70203.0,Daly - Tiwi - West Arnhem,702.0,Northern Territory - Outback,R1,-12.7575418,130.3928484,70203105708.0,70203105708.0,702031057.0,Alligator,70203.0,Daly - Tiwi - West Arnhem,702.0,Northern Territory - Outback,4.0,4.0,6.0,6.0,,8.11834144592285,NT1,PHN701,Northern Territory,Belyuen,70540.0,Lingiari,Rural
353,841,DARWIN RIVER,NT,130.969862,-12.81922863,,,Updated 3-Dec-2022,70103.0,Litchfield,701.0,Darwin,R1,-12.8357379,130.9788775,70103103504.0,70103103515.0,701031035.0,Weddell,70103.0,Litchfield,701.0,Darwin,3.0,3.0,5.0,5.0,,,NT1,PHN701,Northern Territory,Palmerston,72800.0,Lingiari,Rural
354,845,BATCHELOR,NT,131.038475,-13.045118,,,Updated 3-Dec-2022,70203.0,Daly - Tiwi - West Arnhem,702.0,Northern Territory - Outback,R1,-13.0785018,131.0625213,70203105711.0,70203105711.0,702031057.0,Alligator,70203.0,Daly - Tiwi - West Arnhem,702.0,Northern Territory - Outback,4.0,4.0,6.0,6.0,,122.881401062012,NT1,PHN701,Northern Territory,Coomalie,70700.0,Lingiari,Rural
355,846,ADELAIDE RIVER,NT,131.095002,-13.210299,,,Updated 3-Dec-2022,70203.0,Daly - Tiwi - West Arnhem,702.0,Northern Territory - Outback,R1,-13.1748284,131.1401349,70203105711.0,70203105711.0,702031057.0,Alligator,70203.0,Daly - Tiwi - West Arnhem,702.0,Northern Territory - Outback,4.0,4.0,6.0,6.0,,63.0350723266602,NT1,PHN701,Northern Territory,Coomalie,70700.0,Lingiari,Rural
356,847,PINE CREEK,NT,131.759154,-14.012122,,,Updated 3-Dec-2022,70203.0,Daly - Tiwi - West Arnhem,702.0,Northern Territory - Outback,R1,-13.8380256,131.8004409,70203105803.0,70203105803.0,702031058.0,Daly,70203.0,Daly - Tiwi - West Arnhem,702.0,Northern Territory - Outback,4.0,4.0,6.0,6.0,,200.976379394531,NT1,PHN701,Northern Territory,Katherine,72200.0,Lingiari,Rural
20066,850,COSSACK,NT,132.1721041,-14.46369137,Katherine,Delivery Area,Updated 3-Dec-2022,70205.0,Katherine,702.0,Northern Territory - Outback,R1,-14.5052,132.193,70205106712.0,70205106712.0,702051067.0,Katherine,70205.0,Katherine,702.0,Northern Territory - Outback,4.0,4.0,6.0,6.0,,137.011566162109,NT1,PHN701,Northern Territory,Katherine,72200.0,Lingiari,Rural
358,851,KATHERINE,NT,137.050719,-15.711424,,,Updated 3-Dec-2022,70205.0,Katherine,702.0,Northern Territory - Outback,R1,-14.4521139,132.2715145,70205106702.0,70205106702.0,702051067.0,Katherine,70205.0,Katherine,702.0,Northern Territory - Outback,4.0,4.0,6.0,6.0,,,NT1,PHN701,,Roper Gulf,73600.0,Lingiari,Rural
20071,852,ARNOLD,NT,130.8418661,-16.4525888,Katherine,Delivery Area,Updated 3-Dec-2022,70205.0,Katherine,702.0,Northern Territory - Outback,R1,-16.4713,134.287,70205106508.0,70205106508.0,702051065.0,Elsey,70205.0,Katherine,702.0,Northern Territory - Outback,5.0,5.0,7.0,7.0,,97.4471206665039,NT1,PHN701,Northern Territory,Victoria Daly,74550.0,Lingiari,Rural
20112,853,TINDAL,NT,132.3791217,-14.53113365,Northern Territory Country 1,Delivery Area,Updated 3-Dec-2022,70205.0,Katherine,702.0,Northern Territory - Outback,R1,-14.5473,132.374,70205106717.0,70205106717.0,702051067.0,Katherine,70205.0,Katherine,702.0,Northern Territory - Outback,4.0,4.0,6.0,6.0,,138.497604370117,NT1,PHN701,Northern Territory,Katherine,72200.0,Lingiari,Rural
378,854,BORROLOOLA,NT,136.424191,-16.503809,,,Updated 3-Dec-2022,70205.0,Katherine,702.0,Northern Territory - Outback,R1,-16.0684461,136.3097128,70205106601.0,70205106601.0,702051066.0,Gulf,70205.0,Katherine,702.0,Northern Territory - Outback,5.0,5.0,7.0,7.0,,121.548072814941,NT1,PHN701,Northern Territory,Roper Gulf,73600.0,Lingiari,Rural
380,860,TENNANT CREEK,NT,134.173599,-19.641301,,,Updated 3-Dec-2022,70202.0,Barkly,702.0,Northern Territory - Outback,R1,-19.6573896,134.1815176,70202105608.0,70202105608.0,702021056.0,Tennant Creek,70202.0,Barkly,702.0,Northern Territory - Outback,5.0,5.0,7.0,7.0,,,NT1,PHN701,Northern Territory,Barkly,70420.0,Lingiari,Rural
381,861,BRUNCHILLY,NT,134.500504,-18.874571,,,Updated 3-Dec-2022,70205.0,Katherine,702.0,Northern Territory - Outback,R1,-18.874571,134.500504,70202105502.0,70202105502.0,702021055.0,Barkly,70202.0,Barkly,702.0,Northern Territory - Outback,5.0,5.0,7.0,7.0,,,NT1,,,Barkly,70420.0,Durack,
383,862,AVON DOWNS,NT,134.463153,-18.251528,,,Updated 3-Dec-2022,70205.0,Katherine,702.0,Northern Territory - Outback,R1,-20.0303016,137.4905275,70202105502.0,70202105502.0,702021055.0,Barkly,70202.0,Barkly,702.0,Northern Territory - Outback,5.0,5.0,7.0,7.0,,203.781051635742,NT1,PHN701,Northern Territory,Barkly,70420.0,Lingiari,Rural
396,870,ALICE SPRINGS,NT,133.86314,-23.702291,,,Updated 3-Dec-2022,70201.0,Alice Springs,702.0,Northern Territory - Outback,R1,-23.698042,133.8807471,70201104510.0,70201104510.0,702011045.0,Charles,70201.0,Alice Springs,702.0,Northern Territory - Outback,4.0,4.0,6.0,6.0,,576.998474121094,NT1,PHN701,Northern Territory,Alice Springs,70200.0,Lingiari,Rural
397,871,ALICE SPRINGS,NT,131.298809,-21.949513,,,Updated 3-Dec-2022,70202.0,Barkly,702.0,Northern Territory - Outback,R1,-23.698042,133.8807471,70201104510.0,70201104510.0,702011045.0,Charles,70201.0,Alice Springs,702.0,Northern Territory - Outback,4.0,4.0,6.0,6.0,,,NT1,PHN701,,Central Desert,70620.0,Lingiari,Rural
398,872,AHERRENGE,NT,131.298809,-21.949513,,,Updated 3-Dec-2022,70202.0,Barkly,702.0,Northern Territory - Outback,R1,-21.6721,135.232,70201105209.0,70201105209.0,702011052.0,Sandover - Plenty,70201.0,Alice Springs,702.0,Northern Territory - Outback,5.0,5.0,7.0,7.0,,311.383880615234,NT1,PHN701,Northern Territory,Central Desert,70620.0,Lingiari,Rural
20193,873,AMOONGUNA,NT,133.9050112,-23.74471408,,Delivery Area,Updated 3-Dec-2022,70202.0,Barkly,702.0,Northern Territory - Outback,R1,-23.7638,133.929,70201105203.0,70201105203.0,702011052.0,Sandover - Plenty,70201.0,Alice Springs,702.0,Northern Territory - Outback,4.0,4.0,6.0,6.0,,546.230285644531,NT1,PHN701,Northern Territory,Alice Springs,70200.0,Lingiari,Rural
20199,874,IRLPME,NT,133.8647591,-23.64690294,,Delivery Area,Updated 3-Dec-2022,,,,,R1,-23.6407,133.866,70201104813.0,70201104813.0,702011048.0,Larapinta,70201.0,Alice Springs,702.0,Northern Territory - Outback,4.0,4.0,6.0,6.0,,612.377380371094,NT1,PHN701,Northern Territory,Alice Springs,70200.0,Lingiari,
20202,875,FLYNN,NT,133.8354205,-23.71350386,,Delivery Area,Updated 3-Dec-2022,,,,,R1,-23.7208,133.865,70201104701.0,70201104701.0,702011047.0,Flynn (NT),70201.0,Alice Springs,702.0,Northern Territory - Outback,4.0,4.0,6.0,6.0,,635.180114746094,NT1,PHN701,Northern Territory,Alice Springs,70200.0,Lingiari,Rural
20204,880,GAPUWIYAK,NT,135.7954286,-12.50557433,Northern Territory Country 4,Delivery Area,Updated 3-Dec-2022,70204.0,East Arnhem,702.0,Northern Territory - Outback,R1,-12.5032,135.806,70204106303.0,70204106303.0,702041063.0,East Arnhem,70204.0,East Arnhem,702.0,Northern Territory - Outback,5.0,5.0,7.0,7.0,,7.18359804153442,NT1,PHN701,Northern Territory,East Arnhem,71300.0,Lingiari,Rural
455,881,NHULUNBUY,NT,136.824863,-11.670366,,,Updated 3-Dec-2022,70204.0,East Arnhem,702.0,Northern Territory - Outback,R1,-12.1825,136.781944,70204106407.0,70204106407.0,702041064.0,Nhulunbuy,70204.0,East Arnhem,702.0,Northern Territory - Outback,5.0,5.0,7.0,7.0,,,NT1,PHN701,,East Arnhem,71300.0,Durack,
20207,885,ALYANGULA,NT,136.420066,-13.85078586,Northern Territory Country 4,Delivery Area,Updated 3-Dec-2022,70204.0,East Arnhem,702.0,Northern Territory - Outback,R1,-13.8529,136.422,70204106202.0,70204106202.0,702041062.0,Anindilyakwa,70204.0,East Arnhem,702.0,Northern Territory - Outback,5.0,5.0,7.0,7.0,,21.4030857086182,NT1,PHN701,Northern Territory,East Arnhem,71300.0,Lingiari,Rural
457,886,JABIRU,NT,132.563373,-13.13118,,,Updated 3-Dec-2022,70203.0,Daly - Tiwi - West Arnhem,702.0,Northern Territory - Outback,R1,-12.6688351,132.8345405,70203105712.0,70203105712.0,702031057.0,Alligator,70203.0,Daly - Tiwi - West Arnhem,702.0,Northern Territory - Outback,4.0,4.0,6.0,6.0,,,NT1,PHN701,Northern Territory,West Arnhem,74660.0,Lingiari,Rural
1,906,WINNELLIE,NT,136.947051,-13.643283,,,Updated 3-Dec-2022,70205.0,Katherine,702.0,Northern Territory - Outback,R1,-12.428889,130.869722,70101100906.0,70101100906.0,701011009.0,Woolner - Bayview - Winnellie,70101.0,Darwin City,701.0,Darwin,3.0,3.0,2.0,2.0,,5.12332391738892,NT1,PHN701,,East Arnhem,71300.0,Durack,
2,907,WINNELLIE,NT,136.947051,-13.643283,,,Updated 3-Dec-2022,70205.0,Katherine,702.0,Northern Territory - Outback,R1,-12.428889,130.869722,70101100906.0,70101100906.0,701011009.0,Woolner - Bayview - Winnellie,70101.0,Darwin City,701.0,Darwin,3.0,3.0,2.0,2.0,,5.12332391738892,NT1,PHN701,,East Arnhem,71300.0,Durack,
3,909,CHARLES DARWIN UNIVERSITY,NT,130.869,-12.3718,,,Updated 3-Dec-2022,70102.0,Darwin Suburbs,701.0,Darwin,R1,-12.3718,130.869,70102101301.0,70102101301.0,701021013.0,Brinkin - Nakara,70102.0,Darwin Suburbs,701.0,Darwin,3.0,3.0,2.0,2.0,,16.6437168121338,NT1,PHN701,,Darwin,71000.0,Durack,
458,1001,SYDNEY,NSW,151.268071,-33.794883,EAST SUBS MC,LVR,Updated 25-Mar-2020 SA3,11703.0,Sydney Inner City,117.0,Sydney - City and Inner South,R1,-33.8688197,151.2092955,11703133746.0,11703133746.0,117031337.0,Sydney - Haymarket - The Rocks,11703.0,Sydney Inner City,117.0,Sydney - City and Inner South,1.0,1.0,1.0,1.0,,,N1,PHN101,,Mosman,15350.0,Sydney,
459,1002,SYDNEY,NSW,151.268071,-33.794883,EAST SUBS MC,LVR,Updated 25-Mar-2020 SA3,11703.0,Sydney Inner City,117.0,Sydney - City and Inner South,R1,-33.8688197,151.2092955,11703133746.0,11703133746.0,117031337.0,Sydney - Haymarket - The Rocks,11703.0,Sydney Inner City,117.0,Sydney - City and Inner South,1.0,1.0,1.0,1.0,,,N1,PHN101,,Mosman,15350.0,Sydney,
460,1003,SYDNEY,NSW,151.268071,-33.794883,EAST SUBS MC,LVR,Updated 25-Mar-2020 SA3,11703.0,Sydney Inner City,117.0,Sydney - City and Inner South,R1,-33.8688197,151.2092955,11703133746.0,11703133746.0,117031337.0,Sydney - Haymarket - The Rocks,11703.0,Sydney Inner City,117.0,Sydney - City and Inner South,1.0,1.0,1.0,1.0,,,N1,PHN101,,Mosman,15350.0,Sydney,
461,1004,SYDNEY,NSW,151.268071,-33.794883,EAST SUBS MC,LVR,Updated 25-Mar-2020 SA3,11703.0,Sydney Inner City,117.0,Sydney - City and Inner South,R1,-33.8688197,151.2092955,11703133746.0,11703133746.0,117031337.0,Sydney - Haymarket - The Rocks,11703.0,Sydney Inner City,117.0,Sydney - City and Inner South,1.0,1.0,1.0,1.0,,,N1,PHN101,,Mosman,15350.0,Sydney,
462,1005,SYDNEY,NSW,151.268071,-33.794883,GPO BOX CENTRE,LVR,Updated 25-Mar-2020 SA3,11703.0,Sydney Inner City,117.0,Sydney - City and Inner South,R1,-33.8688197,151.2092955,11703133746.0,11703133746.0,117031337.0,Sydney - Haymarket - The Rocks,11703.0,Sydney Inner City,117.0,Sydney - City and Inner South,1.0,1.0,1.0,1.0,,,N1,PHN101,,Mosman,15350.0,Sydney,
463,1006,SYDNEY,NSW,151.268071,-33.794883,GPO BOX CENTRE,LVR,Updated 25-Mar-2020 SA3,11703.0,Sydney Inner City,117.0,Sydney - City and Inner South,R1,-33.8688197,151.2092955,11703133746.0,11703133746.0,117031337.0,Sydney - Haymarket - The Rocks,11703.0,Sydney Inner City,117.0,Sydney - City and Inner South,1.0,1.0,1.0,1.0,,,N1,PHN101,,Mosman,15350.0,Sydney,
464,1007,SYDNEY,NSW,151.268071,-33.794883,GPO BOX CENTRE,LVR,Updated 25-Mar-2020 SA3,11703.0,Sydney Inner City,117.0,Sydney - City and Inner South,R1,-33.8688197,151.2092955,11703133746.0,11703133746.0,117031337.0,Sydney - Haymarket - The Rocks,11703.0,Sydney Inner City,117.0,Sydney - City and Inner South,1.0,1.0,1.0,1.0,,,N1,PHN101,,Mosman,15350.0,Sydney,
465,1008,SYDNEY,NSW,151.268071,-33.794883,GPO BOX CENTRE,LVR,Updated 25-Mar-2020 SA3,11703.0,Sydney Inner City,117.0,Sydney - City and Inner South,R1,-33.8688197,151.2092955,11703133746.0,11703133746.0,117031337.0,Sydney - Haymarket - The Rocks,11703.0,Sydney Inner City,117.0,Sydney - City and Inner South,1.0,1.0,1.0,1.0,,,N1,PHN101,,Mosman,15350.0,Sydney,
466,1009,SYDNEY,NSW,151.268071,-33.794883,EAST SUBS MC,LVR,Updated 25-Mar-2020 SA3,11703.0,Sydney Inner City,117.0,Sydney - City and Inner South,R1,-33.8688197,151.2092955,11703133746.0,11703133746.0,117031337.0,Sydney - Haymarket - The Rocks,11703.0,Sydney Inner City,117.0,Sydney - City and Inner South,1.0,1.0,1.0,1.0,,,N1,PHN101,,Mosman,15350.0,Sydney,
467,1010,SYDNEY,NSW,151.268071,-33.794883,EAST SUBS MC,LVR,Updated 25-Mar-2020 SA3,11703.0,Sydney Inner City,117.0,Sydney - City and Inner South,R1,-33.8688197,151.2092955,11703133746.0,11703133746.0,117031337.0,Sydney - Haymarket - The Rocks,11703.0,Sydney Inner City,117.0,Sydney - City and Inner South,1.0,1.0,1.0,1.0,,,N1,PHN101,,Mosman,15350.0,Sydney,
468,1020,SYDNEY,NSW,151.268071,-33.794883,,LVR,Updated 25-Mar-2020 SA3,11703.0,Sydney Inner City,117.0,Sydney - City and Inner South,R1,-33.8688197,151.2092955,11703133746.0,11703133746.0,117031337.0,Sydney - Haymarket - The Rocks,11703.0,Sydney Inner City,117.0,Sydney - City and Inner South,1.0,1.0,1.0,1.0,,,N1,PHN101,,Mosman,15350.0,Sydney,
469,1021,SYDNEY,NSW,151.268071,-33.794883,,LVR,Updated 25-Mar-2020 SA3,11703.0,Sydney Inner City,117.0,Sydney - City and Inner South,R1,-33.8688197,151.2092955,11703133746.0,11703133746.0,117031337.0,Sydney - Haymarket - The Rocks,11703.0,Sydney Inner City,117.0,Sydney - City and Inner South,1.0,1.0,1.0,1.0,,,N1,PHN101,,Mosman,15350.0,Sydney,
470,1022,SYDNEY,NSW,151.268071,-33.794883,SYDNEY GPO,LVR,Updated 25-Mar-2020 SA3,11703.0,Sydney Inner City,117.0,Sydney - City and Inner South,R1,-33.8688197,151.2092955,11703133746.0,11703133746.0,117031337.0,Sydney - Haymarket - The Rocks,11703.0,Sydney Inner City,117.0,Sydney - City and Inner South,1.0,1.0,1.0,1.0,,,N1,PHN101,,Mosman,15350.0,Sydney,
471,1023,SYDNEY,NSW,151.268071,-33.794883,,LVR,Updated 25-Mar-2020 SA3,11703.0,Sydney Inner City,117.0,Sydney - City and Inner South,R1,-33.8688197,151.2092955,11703133746.0,11703133746.0,117031337.0,Sydney - Haymarket - The Rocks,11703.0,Sydney Inner City,117.0,Sydney - City and Inner South,1.0,1.0,1.0,1.0,,,N1,PHN101,,Mosman,15350.0,Sydney,
472,1025,SYDNEY,NSW,151.268071,-33.794883,,LVR,Updated 25-Mar-2020 SA3,11703.0,Sydney Inner City,117.0,Sydney - City and Inner South,R1,-33.8688197,151.2092955,11703133746.0,11703133746.0,117031337.0,Sydney - Haymarket - The Rocks,11703.0,Sydney Inner City,117.0,Sydney - City and Inner South,1.0,1.0,1.0,1.0,,,N1,PHN101,,Mosman,15350.0,Sydney,
473,1026,SYDNEY,NSW,151.268071,-33.794883,,LVR,Updated 25-Mar-2020 SA3,11703.0,Sydney Inner City,117.0,Sydney - City and Inner South,R1,-33.8688197,151.2092955,11703133746.0,11703133746.0,117031337.0,Sydney - Haymarket - The Rocks,11703.0,Sydney Inner City,117.0,Sydney - City and Inner South,1.0,1.0,1.0,1.0,,,N1,PHN101,,Mosman,15350.0,Sydney,
474,1027,SYDNEY,NSW,151.268071,-33.794883,,LVR,Updated 25-Mar-2020 SA3,11703.0,Sydney Inner City,117.0,Sydney - City and Inner South,R1,-33.8688197,151.2092955,11703133746.0,11703133746.0,117031337.0,Sydney - Haymarket - The Rocks,11703.0,Sydney Inner City,117.0,Sydney - City and Inner South,1.0,1.0,1.0,1.0,,,N1,PHN101,,Mosman,15350.0,Sydney,
475,1028,SYDNEY,NSW,151.268071,-33.794883,GPO BOX CENTRE,LVR,Updated 25-Mar-2020 SA3,11703.0,Sydney Inner City,117.0,Sydney - City and Inner South,R1,-33.8688197,151.2092955,11703133746.0,11703133746.0,117031337.0,Sydney - Haymarket - The Rocks,11703.0,Sydney Inner City,117.0,Sydney - City and Inner South,1.0,1.0,1.0,1.0,,,N1,PHN101,,Mosman,15350.0,Sydney,
476,1029,SYDNEY,NSW,151.268071,-33.794883,,LVR,Updated 25-Mar-2020 SA3,11703.0,Sydney Inner City,117.0,Sydney - City and Inner South,R1,-33.8688197,151.2092955,11703133746.0,11703133746.0,117031337.0,Sydney - Haymarket - The Rocks,11703.0,Sydney Inner City,117.0,Sydney - City and Inner South,1.0,1.0,1.0,1.0,,,N1,PHN101,,Mosman,15350.0,Sydney,
477,1030,SYDNEY,NSW,151.268071,-33.794883,,LVR,Updated 25-Mar-2020 SA3,11703.0,Sydney Inner City,117.0,Sydney - City and Inner South,R1,-33.8688197,151.2092955,11703133746.0,11703133746.0,117031337.0,Sydney - Haymarket - The Rocks,11703.0,Sydney Inner City,117.0,Sydney - City and Inner South,1.0,1.0,1.0,1.0,,,N1,PHN101,,Mosman,15350.0,Sydney,
478,1031,SYDNEY,NSW,151.268071,-33.794883,,LVR,Updated 25-Mar-2020 SA3,11703.0,Sydney Inner City,117.0,Sydney - City and Inner South,R1,-33.8688197,151.2092955,11703133746.0,11703133746.0,117031337.0,Sydney - Haymarket - The Rocks,11703.0,Sydney Inner City,117.0,Sydney - City and Inner South,1.0,1.0,1.0,1.0,,,N1,PHN101,,Mosman,15350.0,Sydney,
479,1032,SYDNEY,NSW,150.874182,-33.662834,,LVR,Updated 25-Mar-2020 SA3,11703.0,Sydney Inner City,117.0,Sydney - City and Inner South,R1,-33.8688197,151.2092955,11703133746.0,11703133746.0,117031337.0,Sydney - Haymarket - The Rocks,11703.0,Sydney Inner City,117.0,Sydney - City and Inner South,1.0,1.0,1.0,1.0,,,N1,PHN101,,Blacktown,10750.0,Sydney,
480,1033,SYDNEY,NSW,151.268071,-33.794883,,LVR,Updated 25-Mar-2020 SA3,11703.0,Sydney Inner City,117.0,Sydney - City and Inner South,R1,-33.8688197,151.2092955,11703133746.0,11703133746.0,117031337.0,Sydney - Haymarket - The Rocks,11703.0,Sydney Inner City,117.0,Sydney - City and Inner South,1.0,1.0,1.0,1.0,,,N1,PHN101,,Mosman,15350.0,Sydney,
481,1034,SYDNEY,NSW,151.268071,-33.794883,,LVR,Updated 25-Mar-2020 SA3,11703.0,Sydney Inner City,117.0,Sydney - City and Inner South,R1,-33.8688197,151.2092955,11703133746.0,11703133746.0,117031337.0,Sydney - Haymarket - The Rocks,11703.0,Sydney Inner City,117.0,Sydney - City and Inner South,1.0,1.0,1.0,1.0,,,N1,PHN101,,Mosman,15350.0,Sydney,
482,1035,SYDNEY,NSW,151.268071,-33.794883,,LVR,Updated 25-Mar-2020 SA3,11703.0,Sydney Inner City,117.0,Sydney - City and Inner South,R1,-33.8688197,151.2092955,11703133746.0,11703133746.0,117031337.0,Sydney - Haymarket - The Rocks,11703.0,Sydney Inner City,117.0,Sydney - City and Inner South,1.0,1.0,1.0,1.0,,,N1,PHN101,,Mosman,15350.0,Sydney,
483,1036,SYDNEY,NSW,151.268071,-33.794883,,LVR,Updated 25-Mar-2020 SA3,11703.0,Sydney Inner City,117.0,Sydney - City and Inner South,R1,-33.8688197,151.2092955,11703133746.0,11703133746.0,117031337.0,Sydney - Haymarket - The Rocks,11703.0,Sydney Inner City,117.0,Sydney - City and Inner South,1.0,1.0,1.0,1.0,,,N1,PHN101,,Mosman,15350.0,Sydney,
484,1037,SYDNEY,NSW,151.268071,-33.794883,,LVR,Updated 25-Mar-2020 SA3,11703.0,Sydney Inner City,117.0,Sydney - City and Inner South,R1,-33.8688197,151.2092955,11703133746.0,11703133746.0,117031337.0,Sydney - Haymarket - The Rocks,11703.0,Sydney Inner City,117.0,Sydney - City and Inner South,1.0,1.0,1.0,1.0,,,N1,PHN101,,Mosman,15350.0,Sydney,
485,1038,SYDNEY,NSW,151.268071,-33.794883,,LVR,Updated 25-Mar-2020 SA3,11703.0,Sydney Inner City,117.0,Sydney - City and Inner South,R1,-33.8688197,151.2092955,11703133746.0,11703133746.0,117031337.0,Sydney - Haymarket - The Rocks,11703.0,Sydney Inner City,117.0,Sydney - City and Inner South,1.0,1.0,1.0,1.0,,,N1,PHN101,,Mosman,15350.0,Sydney,
486,1039,SYDNEY,NSW,151.268071,-33.794883,GPO BOX CENTRE,LVR,Updated 25-Mar-2020 SA3,11703.0,Sydney Inner City,117.0,Sydney - City and Inner South,R1,-33.8688197,151.2092955,11703133746.0,11703133746.0,117031337.0,Sydney - Haymarket - The Rocks,11703.0,Sydney Inner City,117.0,Sydney - City and Inner South,1.0,1.0,1.0,1.0,,,N1,PHN101,,Mosman,15350.0,Sydney,
487,1040,SYDNEY,NSW,151.268071,-33.794883,,LVR,Updated 25-Mar-2020 SA3,11703.0,Sydney Inner City,117.0,Sydney - City and Inner South,R1,-33.8688197,151.2092955,11703133746.0,11703133746.0,117031337.0,Sydney - Haymarket - The Rocks,11703.0,Sydney Inner City,117.0,Sydney - City and Inner South,1.0,1.0,1.0,1.0,,,N1,PHN101,,Mosman,15350.0,Sydney,
488,1041,SYDNEY,NSW,151.268071,-33.794883,,LVR,Updated 25-Mar-2020 SA3,11703.0,Sydney Inner City,117.0,Sydney - City and Inner South,R1,-33.8688197,151.2092955,11703133746.0,11703133746.0,117031337.0,Sydney - Haymarket - The Rocks,11703.0,Sydney Inner City,117.0,Sydney - City and Inner South,1.0,1.0,1.0,1.0,,,N1,PHN101,,Mosman,15350.0,Sydney,
489,1042,SYDNEY,NSW,151.268071,-33.794883,,LVR,Updated 25-Mar-2020 SA3,11703.0,Sydney Inner City,117.0,Sydney - City and Inner South,R1,-33.8688197,151.2092955,11703133746.0,11703133746.0,117031337.0,Sydney - Haymarket - The Rocks,11703.0,Sydney Inner City,117.0,Sydney - City and Inner South,1.0,1.0,1.0,1.0,,,N1,PHN101,,Mosman,15350.0,Sydney,
490,1043,SYDNEY,NSW,151.268071,-33.794883,,LVR,Updated 25-Mar-2020 SA3,11703.0,Sydney Inner City,117.0,Sydney - City and Inner South,R1,-33.8688197,151.2092955,11703133746.0,11703133746.0,117031337.0,Sydney - Haymarket - The Rocks,11703.0,Sydney Inner City,117.0,Sydney - City and Inner South,1.0,1.0,1.0,1.0,,,N1,PHN101,,Mosman,15350.0,Sydney,
491,1044,SYDNEY,NSW,151.268071,-33.794883,,LVR,Updated 25-Mar-2020 SA3,11703.0,Sydney Inner City,117.0,Sydney - City and Inner South,R1,-33.8688197,151.2092955,11703133746.0,11703133746.0,117031337.0,Sydney - Haymarket - The Rocks,11703.0,Sydney Inner City,117.0,Sydney - City and Inner South,1.0,1.0,1.0,1.0,,,N1,PHN101,,Mosman,15350.0,Sydney,
492,1045,SYDNEY,NSW,151.268071,-33.794883,,LVR,Updated 25-Mar-2020 SA3,11703.0,Sydney Inner City,117.0,Sydney - City and Inner South,R1,-33.8688197,151.2092955,11703133746.0,11703133746.0,117031337.0,Sydney - Haymarket - The Rocks,11703.0,Sydney Inner City,117.0,Sydney - City and Inner South,1.0,1.0,1.0,1.0,,,N1,PHN101,,Mosman,15350.0,Sydney,
493,1046,SYDNEY,NSW,151.268071,-33.794883,,LVR,Updated 25-Mar-2020 SA3,11703.0,Sydney Inner City,117.0,Sydney - City and Inner South,R1,-33.8688197,151.2092955,11703133746.0,11703133746.0,117031337.0,Sydney - Haymarket - The Rocks,11703.0,Sydney Inner City,117.0,Sydney - City and Inner South,1.0,1.0,1.0,1.0,,,N1,PHN101,,Mosman,15350.0,Sydney,
494,1100,SYDNEY,NSW,151.268071,-33.794883,EAST SUBS MC,LVR,Updated 25-Mar-2020 SA3,11703.0,Sydney Inner City,117.0,Sydney - City and Inner South,R1,-33.8688197,151.2092955,11703133746.0,11703133746.0,117031337.0,Sydney - Haymarket - The Rocks,11703.0,Sydney Inner City,117.0,Sydney - City and Inner South,1.0,1.0,1.0,1.0,,,N1,PHN101,,Mosman,15350.0,Sydney,
495,1101,SYDNEY,NSW,151.268071,-33.794883,EAST SUBS MC,LVR,Updated 25-Mar-2020 SA3,11703.0,Sydney Inner City,117.0,Sydney - City and Inner South,R1,-33.8688197,151.2092955,11703133746.0,11703133746.0,117031337.0,Sydney - Haymarket - The Rocks,11703.0,Sydney Inner City,117.0,Sydney - City and Inner South,1.0,1.0,1.0,1.0,,,N1,PHN101,,Mosman,15350.0,Sydney,
496,1105,SYDNEY,NSW,151.268071,-33.794883,GPO BOX CENTRE,LVR,Updated 25-Mar-2020 SA3,11703.0,Sydney Inner City,117.0,Sydney - City and Inner South,R1,-33.8688197,151.2092955,11703133746.0,11703133746.0,117031337.0,Sydney - Haymarket - The Rocks,11703.0,Sydney Inner City,117.0,Sydney - City and Inner South,1.0,1.0,1.0,1.0,,,N1,PHN101,,Mosman,15350.0,Sydney,
497,1106,SYDNEY,NSW,151.268071,-33.794883,EAST SUBS MC,LVR,Updated 25-Mar-2020 SA3,11703.0,Sydney Inner City,117.0,Sydney - City and Inner South,R1,-33.8688197,151.2092955,11703133746.0,11703133746.0,117031337.0,Sydney - Haymarket - The Rocks,11703.0,Sydney Inner City,117.0,Sydney - City and Inner South,1.0,1.0,1.0,1.0,,,N1,PHN101,,Mosman,15350.0,Sydney,
498,1107,SYDNEY,NSW,151.268071,-33.794883,EAST SUBS MC,LVR,Updated 25-Mar-2020 SA3,11703.0,Sydney Inner City,117.0,Sydney - City and Inner South,R1,-33.8688197,151.2092955,11703133746.0,11703133746.0,117031337.0,Sydney - Haymarket - The Rocks,11703.0,Sydney Inner City,117.0,Sydney - City and Inner South,1.0,1.0,1.0,1.0,,,N1,PHN101,,Mosman,15350.0,Sydney,
499,1108,SYDNEY,NSW,151.268071,-33.794883,EAST SUBS MC,LVR,Updated 25-Mar-2020 SA3,11703.0,Sydney Inner City,117.0,Sydney - City and Inner South,R1,-33.8688197,151.2092955,11703133746.0,11703133746.0,117031337.0,Sydney - Haymarket - The Rocks,11703.0,Sydney Inner City,117.0,Sydney - City and Inner South,1.0,1.0,1.0,1.0,,,N1,PHN101,,Mosman,15350.0,Sydney,
500,1109,SYDNEY,NSW,151.268071,-33.794883,EAST SUBS MC,LVR,Updated 25-Mar-2020 SA3,11703.0,Sydney Inner City,117.0,Sydney - City and Inner South,R1,-33.8688197,151.2092955,11703133746.0,11703133746.0,117031337.0,Sydney - Haymarket - The Rocks,11703.0,Sydney Inner City,117.0,Sydney - City and Inner South,1.0,1.0,1.0,1.0,,,N1,PHN101,,Mosman,15350.0,Sydney,
501,1110,SYDNEY,NSW,151.268071,-33.794883,EAST SUBS MC,LVR,Updated 25-Mar-2020 SA3,11703.0,Sydney Inner City,117.0,Sydney - City and Inner South,R1,-33.8688197,151.2092955,11703133746.0,11703133746.0,117031337.0,Sydney - Haymarket - The Rocks,11703.0,Sydney Inner City,117.0,Sydney - City and Inner South,1.0,1.0,1.0,1.0,,,N1,PHN101,,Mosman,15350.0,Sydney,
502,1112,SYDNEY,NSW,151.268071,-33.794883,,LVR,Updated 25-Mar-2020 SA3,11703.0,Sydney Inner City,117.0,Sydney - City and Inner South,R1,-33.8688197,151.2092955,11703133746.0,11703133746.0,117031337.0,Sydney - Haymarket - The Rocks,11703.0,Sydney Inner City,117.0,Sydney - City and Inner South,1.0,1.0,1.0,1.0,,,N1,PHN101,,Mosman,15350.0,Sydney,
503,1113,SYDNEY,NSW,151.268071,-33.794883,,LVR,Updated 25-Mar-2020 SA3,11703.0,Sydney Inner City,117.0,Sydney - City and Inner South,R1,-33.8688197,151.2092955,11703133746.0,11703133746.0,117031337.0,Sydney - Haymarket - The Rocks,11703.0,Sydney Inner City,117.0,Sydney - City and Inner South,1.0,1.0,1.0,1.0,,,N1,PHN101,,Mosman,15350.0,Sydney,
504,1114,SYDNEY,NSW,151.268071,-33.794883,,LVR,Updated 25-Mar-2020 SA3,11703.0,Sydney Inner City,117.0,Sydney - City and Inner South,R1,-33.8688197,151.2092955,11703133746.0,11703133746.0,117031337.0,Sydney - Haymarket - The Rocks,11703.0,Sydney Inner City,117.0,Sydney - City and Inner South,1.0,1.0,1.0,1.0,,,N1,PHN101,,Mosman,15350.0,Sydney,
505,1115,SYDNEY,NSW,151.268071,-33.794883,EAST SUBS MC,LVR,Updated 25-Mar-2020 SA3,11703.0,Sydney Inner City,117.0,Sydney - City and Inner South,R1,-33.8688197,151.2092955,11703133746.0,11703133746.0,117031337.0,Sydney - Haymarket - The Rocks,11703.0,Sydney Inner City,117.0,Sydney - City and Inner South,1.0,1.0,1.0,1.0,,,N1,PHN101,,Mosman,15350.0,Sydney,
506,1116,SYDNEY,NSW,150.866145,-33.666729,,LVR,Updated 25-Mar-2020 SA3,11703.0,Sydney Inner City,117.0,Sydney - City and Inner South,R1,-33.8688197,151.2092955,11703133746.0,11703133746.0,117031337.0,Sydney - Haymarket - The Rocks,11703.0,Sydney Inner City,117.0,Sydney - City and Inner South,1.0,1.0,1.0,1.0,,36.4835357666016,N1,PHN101,,Blacktown,10750.0,Sydney,
507,1117,SYDNEY,NSW,150.87022,-33.664575,CITY PBC OPERATIONS,LVR,Updated 25-Mar-2020 SA3,11703.0,Sydney Inner City,117.0,Sydney - City and Inner South,R1,-33.8688197,151.2092955,11703133746.0,11703133746.0,117031337.0,Sydney - Haymarket - The Rocks,11703.0,Sydney Inner City,117.0,Sydney - City and Inner South,1.0,1.0,1.0,1.0,,47.5577545166016,N1,PHN101,,Blacktown,10750.0,Sydney,
508,1118,SYDNEY,NSW,151.268071,-33.794883,EAST SUBS MC,LVR,Updated 25-Mar-2020 SA3,11703.0,Sydney Inner City,117.0,Sydney - City and Inner South,R1,-33.8688197,151.2092955,11703133746.0,11703133746.0,117031337.0,Sydney - Haymarket - The Rocks,11703.0,Sydney Inner City,117.0,Sydney - City and Inner South,1.0,1.0,1.0,1.0,,,N1,PHN101,,Mosman,15350.0,Sydney,
509,1119,SYDNEY,NSW,151.268071,-33.794883,EAST SUBS MC,LVR,Updated 25-Mar-2020 SA3,11703.0,Sydney Inner City,117.0,Sydney - City and Inner South,R1,-33.8688197,151.2092955,11703133746.0,11703133746.0,117031337.0,Sydney - Haymarket - The Rocks,11703.0,Sydney Inner City,117.0,Sydney - City and Inner South,1.0,1.0,1.0,1.0,,,N1,PHN101,,Mosman,15350.0,Sydney,
510,1120,SYDNEY,NSW,151.268071,-33.794883,EAST SUBS MC,LVR,Updated 25-Mar-2020 SA3,11703.0,Sydney Inner City,117.0,Sydney - City and Inner South,R1,-33.8688197,151.2092955,11703133746.0,11703133746.0,117031337.0,Sydney - Haymarket - The Rocks,11703.0,Sydney Inner City,117.0,Sydney - City and Inner South,1.0,1.0,1.0,1.0,,,N1,PHN101,,Mosman,15350.0,Sydney,
511,1121,SYDNEY,NSW,151.268071,-33.794883,EAST SUBS MC,LVR,Updated 25-Mar-2020 SA3,11703.0,Sydney Inner City,117.0,Sydney - City and Inner South,R1,-33.8688197,151.2092955,11703133746.0,11703133746.0,117031337.0,Sydney - Haymarket - The Rocks,11703.0,Sydney Inner City,117.0,Sydney - City and Inner South,1.0,1.0,1.0,1.0,,,N1,PHN101,,Mosman,15350.0,Sydney,
512,1122,SYDNEY,NSW,151.268071,-33.794883,EAST SUBS MC,LVR,Updated 25-Mar-2020 SA3,11703.0,Sydney Inner City,117.0,Sydney - City and Inner South,R1,-33.8688197,151.2092955,11703133746.0,11703133746.0,117031337.0,Sydney - Haymarket - The Rocks,11703.0,Sydney Inner City,117.0,Sydney - City and Inner South,1.0,1.0,1.0,1.0,,,N1,PHN101,,Mosman,15350.0,Sydney,
513,1123,SYDNEY,NSW,151.268071,-33.794883,EAST SUBS MC,LVR,Updated 25-Mar-2020 SA3,11703.0,Sydney Inner City,117.0,Sydney - City and Inner South,R1,-33.8688197,151.2092955,11703133746.0,11703133746.0,117031337.0,Sydney - Haymarket - The Rocks,11703.0,Sydney Inner City,117.0,Sydney - City and Inner South,1.0,1.0,1.0,1.0,,,N1,PHN101,,Mosman,15350.0,Sydney,
514,1124,SYDNEY,NSW,151.268071,-33.794883,EAST SUBS MC,LVR,Updated 25-Mar-2020 SA3,11703.0,Sydney Inner City,117.0,Sydney - City and Inner South,R1,-33.8688197,151.2092955,11703133746.0,11703133746.0,117031337.0,Sydney - Haymarket - The Rocks,11703.0,Sydney Inner City,117.0,Sydney - City and Inner South,1.0,1.0,1.0,1.0,,,N1,PHN101,,Mosman,15350.0,Sydney,
515,1125,SYDNEY,NSW,151.268071,-33.794883,,LVR,Updated 25-Mar-2020 SA3,11703.0,Sydney Inner City,117.0,Sydney - City and Inner South,R1,-33.8688197,151.2092955,11703133746.0,11703133746.0,117031337.0,Sydney - Haymarket - The Rocks,11703.0,Sydney Inner City,117.0,Sydney - City and Inner South,1.0,1.0,1.0,1.0,,,N1,PHN101,,Mosman,15350.0,Sydney,
516,1126,SYDNEY,NSW,151.268071,-33.794883,EAST SUBS MC,LVR,Updated 25-Mar-2020 SA3,11703.0,Sydney Inner City,117.0,Sydney - City and Inner South,R1,-33.8688197,151.2092955,11703133746.0,11703133746.0,117031337.0,Sydney - Haymarket - The Rocks,11703.0,Sydney Inner City,117.0,Sydney - City and Inner South,1.0,1.0,1.0,1.0,,,N1,PHN101,,Mosman,15350.0,Sydney,
517,1127,SYDNEY,NSW,151.268071,-33.794883,EAST SUBS MC,LVR,Updated 25-Mar-2020 SA3,11703.0,Sydney Inner City,117.0,Sydney - City and Inner South,R1,-33.8688197,151.2092955,11703133746.0,11703133746.0,117031337.0,Sydney - Haymarket - The Rocks,11703.0,Sydney Inner City,117.0,Sydney - City and Inner South,1.0,1.0,1.0,1.0,,,N1,PHN101,,Mosman,15350.0,Sydney,
518,1128,SYDNEY,NSW,151.268071,-33.794883,CITY PBC OPERATIONS,LVR,Updated 25-Mar-2020 SA3,11703.0,Sydney Inner City,117.0,Sydney - City and Inner South,R1,-33.8688197,151.2092955,11703133746.0,11703133746.0,117031337.0,Sydney - Haymarket - The Rocks,11703.0,Sydney Inner City,117.0,Sydney - City and Inner South,1.0,1.0,1.0,1.0,,,N1,PHN101,,Mosman,15350.0,Sydney,
519,1129,SYDNEY,NSW,151.268071,-33.794883,,LVR,Updated 25-Mar-2020 SA3,11703.0,Sydney Inner City,117.0,Sydney - City and Inner South,R1,-33.8688197,151.2092955,11703133746.0,11703133746.0,117031337.0,Sydney - Haymarket - The Rocks,11703.0,Sydney Inner City,117.0,Sydney - City and Inner South,1.0,1.0,1.0,1.0,,,N1,PHN101,,Mosman,15350.0,Sydney,
520,1130,SYDNEY,NSW,151.268071,-33.794883,EAST SUBS MC,LVR,Updated 25-Mar-2020 SA3,11703.0,Sydney Inner City,117.0,Sydney - City and Inner South,R1,-33.8688197,151.2092955,11703133746.0,11703133746.0,117031337.0,Sydney - Haymarket - The Rocks,11703.0,Sydney Inner City,117.0,Sydney - City and Inner South,1.0,1.0,1.0,1.0,,,N1,PHN101,,Mosman,15350.0,Sydney,
521,1131,SYDNEY,NSW,151.268071,-33.794883,EAST SUBS MC,LVR,Updated 25-Mar-2020 SA3,11703.0,Sydney Inner City,117.0,Sydney - City and Inner South,R1,-33.8688197,151.2092955,11703133746.0,11703133746.0,117031337.0,Sydney - Haymarket - The Rocks,11703.0,Sydney Inner City,117.0,Sydney - City and Inner South,1.0,1.0,1.0,1.0,,,N1,PHN101,,Mosman,15350.0,Sydney,
522,1132,SYDNEY,NSW,150.874265,-33.66279,EAST SUBS MC,LVR,Updated 25-Mar-2020 SA3,11703.0,Sydney Inner City,117.0,Sydney - City and Inner South,R1,-33.8688197,151.2092955,11703133746.0,11703133746.0,117031337.0,Sydney - Haymarket - The Rocks,11703.0,Sydney Inner City,117.0,Sydney - City and Inner South,1.0,1.0,1.0,1.0,,,N1,PHN101,,Blacktown,10750.0,Sydney,
523,1133,SYDNEY,NSW,151.268071,-33.794883,EAST SUBS MC,LVR,Updated 25-Mar-2020 SA3,11703.0,Sydney Inner City,117.0,Sydney - City and Inner South,R1,-33.8688197,151.2092955,11703133746.0,11703133746.0,117031337.0,Sydney - Haymarket - The Rocks,11703.0,Sydney Inner City,117.0,Sydney - City and Inner South,1.0,1.0,1.0,1.0,,,N1,PHN101,,Mosman,15350.0,Sydney,
524,1134,SYDNEY,NSW,151.268071,-33.794883,EAST SUBS MC,LVR,Updated 25-Mar-2020 SA3,11703.0,Sydney Inner City,117.0,Sydney - City and Inner South,R1,-33.8688197,151.2092955,11703133746.0,11703133746.0,117031337.0,Sydney - Haymarket - The Rocks,11703.0,Sydney Inner City,117.0,Sydney - City and Inner South,1.0,1.0,1.0,1.0,,,N1,PHN101,,Mosman,15350.0,Sydney,
525,1135,SYDNEY,NSW,151.268071,-33.794883,EAST SUBS MC,LVR,Updated 25-Mar-2020 SA3,11703.0,Sydney Inner City,117.0,Sydney - City and Inner South,R1,-33.8688197,151.2092955,11703133746.0,11703133746.0,117031337.0,Sydney - Haymarket - The Rocks,11703.0,Sydney Inner City,117.0,Sydney - City and Inner South,1.0,1.0,1.0,1.0,,,N1,PHN101,,Mosman,15350.0,Sydney,
526,1136,SYDNEY,NSW,151.268071,-33.794883,EAST SUBS MC,LVR,Updated 25-Mar-2020 SA3,11703.0,Sydney Inner City,117.0,Sydney - City and Inner South,R1,-33.8688197,151.2092955,11703133746.0,11703133746.0,117031337.0,Sydney - Haymarket - The Rocks,11703.0,Sydney Inner City,117.0,Sydney - City and Inner South,1.0,1.0,1.0,1.0,,,N1,PHN101,,Mosman,15350.0,Sydney,
527,1137,SYDNEY,NSW,151.268071,-33.794883,,LVR,Updated 25-Mar-2020 SA3,11703.0,Sydney Inner City,117.0,Sydney - City and Inner South,R1,-33.8688197,151.2092955,11703133746.0,11703133746.0,117031337.0,Sydney - Haymarket - The Rocks,11703.0,Sydney Inner City,117.0,Sydney - City and Inner South,1.0,1.0,1.0,1.0,,,N1,PHN101,,Mosman,15350.0,Sydney,
528,1138,SYDNEY,NSW,151.268071,-33.794883,,LVR,Updated 25-Mar-2020 SA3,11703.0,Sydney Inner City,117.0,Sydney - City and Inner South,R1,-33.8688197,151.2092955,11703133746.0,11703133746.0,117031337.0,Sydney - Haymarket - The Rocks,11703.0,Sydney Inner City,117.0,Sydney - City and Inner South,1.0,1.0,1.0,1.0,,,N1,PHN101,,Mosman,15350.0,Sydney,
529,1139,SYDNEY,NSW,151.268071,-33.794883,EAST SUBS MC,LVR,Updated 25-Mar-2020 SA3,11703.0,Sydney Inner City,117.0,Sydney - City and Inner South,R1,-33.8688197,151.2092955,11703133746.0,11703133746.0,117031337.0,Sydney - Haymarket - The Rocks,11703.0,Sydney Inner City,117.0,Sydney - City and Inner South,1.0,1.0,1.0,1.0,,,N1,PHN101,,Mosman,15350.0,Sydney,
530,1140,SYDNEY,NSW,151.268071,-33.794883,GPO BOX CENTRE,LVR,Updated 25-Mar-2020 SA3,11703.0,Sydney Inner City,117.0,Sydney - City and Inner South,R1,-33.8688197,151.2092955,11703133746.0,11703133746.0,117031337.0,Sydney - Haymarket - The Rocks,11703.0,Sydney Inner City,117.0,Sydney - City and Inner South,1.0,1.0,1.0,1.0,,,N1,PHN101,,Mosman,15350.0,Sydney,
531,1141,SYDNEY,NSW,151.268071,-33.794883,EAST SUBS MC,LVR,Updated 25-Mar-2020 SA3,11703.0,Sydney Inner City,117.0,Sydney - City and Inner South,R1,-33.8688197,151.2092955,11703133746.0,11703133746.0,117031337.0,Sydney - Haymarket - The Rocks,11703.0,Sydney Inner City,117.0,Sydney - City and Inner South,1.0,1.0,1.0,1.0,,,N1,PHN101,,Mosman,15350.0,Sydney,
532,1142,SYDNEY,NSW,151.268071,-33.794883,,LVR,Updated 25-Mar-2020 SA3,11703.0,Sydney Inner City,117.0,Sydney - City and Inner South,R1,-33.8688197,151.2092955,11703133746.0,11703133746.0,117031337.0,Sydney - Haymarket - The Rocks,11703.0,Sydney Inner City,117.0,Sydney - City and Inner South,1.0,1.0,1.0,1.0,,,N1,PHN101,,Mosman,15350.0,Sydney,
533,1143,SYDNEY,NSW,151.268071,-33.794883,,LVR,Updated 25-Mar-2020 SA3,11703.0,Sydney Inner City,117.0,Sydney - City and Inner South,R1,-33.8688197,151.2092955,11703133746.0,11703133746.0,117031337.0,Sydney - Haymarket - The Rocks,11703.0,Sydney Inner City,117.0,Sydney - City and Inner South,1.0,1.0,1.0,1.0,,,N1,PHN101,,Mosman,15350.0,Sydney,
534,1144,SYDNEY,NSW,151.268071,-33.794883,EAST SUBS MC,LVR,Updated 25-Mar-2020 SA3,11703.0,Sydney Inner City,117.0,Sydney - City and Inner South,R1,-33.8688197,151.2092955,11703133746.0,11703133746.0,117031337.0,Sydney - Haymarket - The Rocks,11703.0,Sydney Inner City,117.0,Sydney - City and Inner South,1.0,1.0,1.0,1.0,,,N1,PHN101,,Mosman,15350.0,Sydney,
535,1145,SYDNEY,NSW,151.268071,-33.794883,EAST SUBS MC,LVR,Updated 25-Mar-2020 SA3,11703.0,Sydney Inner City,117.0,Sydney - City and Inner South,R1,-33.8688197,151.2092955,11703133746.0,11703133746.0,117031337.0,Sydney - Haymarket - The Rocks,11703.0,Sydney Inner City,117.0,Sydney - City and Inner South,1.0,1.0,1.0,1.0,,,N1,PHN101,,Mosman,15350.0,Sydney,
536,1146,SYDNEY,NSW,151.268071,-33.794883,EAST SUBS MC,LVR,Updated 25-Mar-2020 SA3,11703.0,Sydney Inner City,117.0,Sydney - City and Inner South,R1,-33.8688197,151.2092955,11703133746.0,11703133746.0,117031337.0,Sydney - Haymarket - The Rocks,11703.0,Sydney Inner City,117.0,Sydney - City and Inner South,1.0,1.0,1.0,1.0,,,N1,PHN101,,Mosman,15350.0,Sydney,
537,1147,SYDNEY,NSW,151.268071,-33.794883,EAST SUBS MC,LVR,Updated 25-Mar-2020 SA3,11703.0,Sydney Inner City,117.0,Sydney - City and Inner South,R1,-33.8688197,151.2092955,11703133746.0,11703133746.0,117031337.0,Sydney - Haymarket - The Rocks,11703.0,Sydney Inner City,117.0,Sydney - City and Inner South,1.0,1.0,1.0,1.0,,,N1,PHN101,,Mosman,15350.0,Sydney,
538,1148,SYDNEY,NSW,151.268071,-33.794883,EAST SUBS MC,LVR,Updated 25-Mar-2020 SA3,11703.0,Sydney Inner City,117.0,Sydney - City and Inner South,R1,-33.8688197,151.2092955,11703133746.0,11703133746.0,117031337.0,Sydney - Haymarket - The Rocks,11703.0,Sydney Inner City,117.0,Sydney - City and Inner South,1.0,1.0,1.0,1.0,,,N1,PHN101,,Mosman,15350.0,Sydney,
539,1149,SYDNEY,NSW,151.268071,-33.794883,EAST SUBS MC,LVR,Updated 25-Mar-2020 SA3,11703.0,Sydney Inner City,117.0,Sydney - City and Inner South,R1,-33.8688197,151.2092955,11703133746.0,11703133746.0,117031337.0,Sydney - Haymarket - The Rocks,11703.0,Sydney Inner City,117.0,Sydney - City and Inner South,1.0,1.0,1.0,1.0,,,N1,PHN101,,Mosman,15350.0,Sydney,
540,1150,SYDNEY,NSW,151.268071,-33.794883,EAST SUBS MC,LVR,Updated 25-Mar-2020 SA3,11703.0,Sydney Inner City,117.0,Sydney - City and Inner South,R1,-33.8688197,151.2092955,11703133746.0,11703133746.0,117031337.0,Sydney - Haymarket - The Rocks,11703.0,Sydney Inner City,117.0,Sydney - City and Inner South,1.0,1.0,1.0,1.0,,,N1,PHN101,,Mosman,15350.0,Sydney,
541,1151,SYDNEY,NSW,151.268071,-33.794883,EAST SUBS MC,LVR,Updated 25-Mar-2020 SA3,11703.0,Sydney Inner City,117.0,Sydney - City and Inner South,R1,-33.8688197,151.2092955,11703133746.0,11703133746.0,117031337.0,Sydney - Haymarket - The Rocks,11703.0,Sydney Inner City,117.0,Sydney - City and Inner South,1.0,1.0,1.0,1.0,,,N1,PHN101,,Mosman,15350.0,Sydney,
542,1152,SYDNEY,NSW,151.268071,-33.794883,EAST SUBS MC,LVR,Updated 25-Mar-2020 SA3,11703.0,Sydney Inner City,117.0,Sydney - City and Inner South,R1,-33.8688197,151.2092955,11703133746.0,11703133746.0,117031337.0,Sydney - Haymarket - The Rocks,11703.0,Sydney Inner City,117.0,Sydney - City and Inner South,1.0,1.0,1.0,1.0,,,N1,PHN101,,Mosman,15350.0,Sydney,
543,1153,SYDNEY,NSW,151.268071,-33.794883,,LVR,Updated 25-Mar-2020 SA3,11703.0,Sydney Inner City,117.0,Sydney - City and Inner South,R1,-33.8688197,151.2092955,11703133746.0,11703133746.0,117031337.0,Sydney - Haymarket - The Rocks,11703.0,Sydney Inner City,117.0,Sydney - City and Inner South,1.0,1.0,1.0,1.0,,,N1,PHN101,,Mosman,15350.0,Sydney,
544,1154,SYDNEY,NSW,151.268071,-33.794883,GPO BOX CENTRE,LVR,Updated 25-Mar-2020 SA3,11703.0,Sydney Inner City,117.0,Sydney - City and Inner South,R1,-33.8688197,151.2092955,11703133746.0,11703133746.0,117031337.0,Sydney - Haymarket - The Rocks,11703.0,Sydney Inner City,117.0,Sydney - City and Inner South,1.0,1.0,1.0,1.0,,,N1,PHN101,,Mosman,15350.0,Sydney,
545,1155,SYDNEY,NSW,151.268071,-33.794883,,LVR,Updated 25-Mar-2020 SA3,11703.0,Sydney Inner City,117.0,Sydney - City and Inner South,R1,-33.8688197,151.2092955,11703133746.0,11703133746.0,117031337.0,Sydney - Haymarket - The Rocks,11703.0,Sydney Inner City,117.0,Sydney - City and Inner South,1.0,1.0,1.0,1.0,,,N1,PHN101,,Mosman,15350.0,Sydney,
546,1156,SYDNEY,NSW,151.268071,-33.794883,,LVR,Updated 25-Mar-2020 SA3,11703.0,Sydney Inner City,117.0,Sydney - City and Inner South,R1,-33.8688197,151.2092955,11703133746.0,11703133746.0,117031337.0,Sydney - Haymarket - The Rocks,11703.0,Sydney Inner City,117.0,Sydney - City and Inner South,1.0,1.0,1.0,1.0,,,N1,PHN101,,Mosman,15350.0,Sydney,
547,1157,SYDNEY,NSW,151.268071,-33.794883,,LVR,Updated 25-Mar-2020 SA3,11703.0,Sydney Inner City,117.0,Sydney - City and Inner South,R1,-33.8688197,151.2092955,11703133746.0,11703133746.0,117031337.0,Sydney - Haymarket - The Rocks,11703.0,Sydney Inner City,117.0,Sydney - City and Inner South,1.0,1.0,1.0,1.0,,,N1,PHN101,,Mosman,15350.0,Sydney,
548,1158,SYDNEY,NSW,151.268071,-33.794883,,LVR,Updated 25-Mar-2020 SA3,11703.0,Sydney Inner City,117.0,Sydney - City and Inner South,R1,-33.8688197,151.2092955,11703133746.0,11703133746.0,117031337.0,Sydney - Haymarket - The Rocks,11703.0,Sydney Inner City,117.0,Sydney - City and Inner South,1.0,1.0,1.0,1.0,,,N1,PHN101,,Mosman,15350.0,Sydney,
549,1159,SYDNEY,NSW,151.268071,-33.794883,,LVR,Updated 25-Mar-2020 SA3,11703.0,Sydney Inner City,117.0,Sydney - City and Inner South,R1,-33.8688197,151.2092955,11703133746.0,11703133746.0,117031337.0,Sydney - Haymarket - The Rocks,11703.0,Sydney Inner City,117.0,Sydney - City and Inner South,1.0,1.0,1.0,1.0,,,N1,PHN101,,Mosman,15350.0,Sydney,
550,1160,SYDNEY,NSW,151.268071,-33.794883,,LVR,Updated 25-Mar-2020 SA3,11703.0,Sydney Inner City,117.0,Sydney - City and Inner South,R1,-33.8688197,151.2092955,11703133746.0,11703133746.0,117031337.0,Sydney - Haymarket - The Rocks,11703.0,Sydney Inner City,117.0,Sydney - City and Inner South,1.0,1.0,1.0,1.0,,,N1,PHN101,,Mosman,15350.0,Sydney,
551,1161,SYDNEY,NSW,151.268071,-33.794883,EAST SUBS MC,LVR,Updated 25-Mar-2020 SA3,11703.0,Sydney Inner City,117.0,Sydney - City and Inner South,R1,-33.8688197,151.2092955,11703133746.0,11703133746.0,117031337.0,Sydney - Haymarket - The Rocks,11703.0,Sydney Inner City,117.0,Sydney - City and Inner South,1.0,1.0,1.0,1.0,,,N1,PHN101,,Mosman,15350.0,Sydney,
552,1162,SYDNEY,NSW,151.268071,-33.794883,EAST SUBS MC,LVR,Updated 25-Mar-2020 SA3,11703.0,Sydney Inner City,117.0,Sydney - City and Inner South,R1,-33.8688197,151.2092955,11703133746.0,11703133746.0,117031337.0,Sydney - Haymarket - The Rocks,11703.0,Sydney Inner City,117.0,Sydney - City and Inner South,1.0,1.0,1.0,1.0,,,N1,PHN101,,Mosman,15350.0,Sydney,
553,1163,SYDNEY,NSW,151.268071,-33.794883,,LVR,Updated 25-Mar-2020 SA3,11703.0,Sydney Inner City,117.0,Sydney - City and Inner South,R1,-33.8688197,151.2092955,11703133746.0,11703133746.0,117031337.0,Sydney - Haymarket - The Rocks,11703.0,Sydney Inner City,117.0,Sydney - City and Inner South,1.0,1.0,1.0,1.0,,,N1,PHN101,,Mosman,15350.0,Sydney,
554,1164,SYDNEY,NSW,151.268071,-33.794883,,LVR,Updated 25-Mar-2020 SA3,11703.0,Sydney Inner City,117.0,Sydney - City and Inner South,R1,-33.8688197,151.2092955,11703133746.0,11703133746.0,117031337.0,Sydney - Haymarket - The Rocks,11703.0,Sydney Inner City,117.0,Sydney - City and Inner South,1.0,1.0,1.0,1.0,,,N1,PHN101,,Mosman,15350.0,Sydney,
555,1165,SYDNEY,NSW,151.268071,-33.794883,,LVR,Updated 25-Mar-2020 SA3,11703.0,Sydney Inner City,117.0,Sydney - City and Inner South,R1,-33.8688197,151.2092955,11703133746.0,11703133746.0,117031337.0,Sydney - Haymarket - The Rocks,11703.0,Sydney Inner City,117.0,Sydney - City and Inner South,1.0,1.0,1.0,1.0,,,N1,PHN101,,Mosman,15350.0,Sydney,
556,1166,SYDNEY,NSW,151.268071,-33.794883,,LVR,Updated 25-Mar-2020 SA3,11703.0,Sydney Inner City,117.0,Sydney - City and Inner South,R1,-33.8688197,151.2092955,11703133746.0,11703133746.0,117031337.0,Sydney - Haymarket - The Rocks,11703.0,Sydney Inner City,117.0,Sydney - City and Inner South,1.0,1.0,1.0,1.0,,,N1,PHN101,,Mosman,15350.0,Sydney,
557,1167,SYDNEY,NSW,151.268071,-33.794883,,LVR,Updated 25-Mar-2020 SA3,11703.0,Sydney Inner City,117.0,Sydney - City and Inner South,R1,-33.8688197,151.2092955,11703133746.0,11703133746.0,117031337.0,Sydney - Haymarket - The Rocks,11703.0,Sydney Inner City,117.0,Sydney - City and Inner South,1.0,1.0,1.0,1.0,,,N1,PHN101,,Mosman,15350.0,Sydney,
558,1168,SYDNEY,NSW,151.268071,-33.794883,,LVR,Updated 25-Mar-2020 SA3,11703.0,Sydney Inner City,117.0,Sydney - City and Inner South,R1,-33.8688197,151.2092955,11703133746.0,11703133746.0,117031337.0,Sydney - Haymarket - The Rocks,11703.0,Sydney Inner City,117.0,Sydney - City and Inner South,1.0,1.0,1.0,1.0,,,N1,PHN101,,Mosman,15350.0,Sydney,
559,1169,SYDNEY,NSW,151.268071,-33.794883,,LVR,Updated 25-Mar-2020 SA3,11703.0,Sydney Inner City,117.0,Sydney - City and Inner South,R1,-33.8688197,151.2092955,11703133746.0,11703133746.0,117031337.0,Sydney - Haymarket - The Rocks,11703.0,Sydney Inner City,117.0,Sydney - City and Inner South,1.0,1.0,1.0,1.0,,,N1,PHN101,,Mosman,15350.0,Sydney,
560,1170,SYDNEY,NSW,151.268071,-33.794883,,LVR,Updated 25-Mar-2020 SA3,11703.0,Sydney Inner City,117.0,Sydney - City and Inner South,R1,-33.8688197,151.2092955,11703133746.0,11703133746.0,117031337.0,Sydney - Haymarket - The Rocks,11703.0,Sydney Inner City,117.0,Sydney - City and Inner South,1.0,1.0,1.0,1.0,,,N1,PHN101,,Mosman,15350.0,Sydney,
561,1171,SYDNEY,NSW,151.268071,-33.794883,,LVR,Updated 25-Mar-2020 SA3,11703.0,Sydney Inner City,117.0,Sydney - City and Inner South,R1,-33.8688197,151.2092955,11703133746.0,11703133746.0,117031337.0,Sydney - Haymarket - The Rocks,11703.0,Sydney Inner City,117.0,Sydney - City and Inner South,1.0,1.0,1.0,1.0,,,N1,PHN101,,Mosman,15350.0,Sydney,
562,1172,SYDNEY,NSW,151.268071,-33.794883,,LVR,Updated 25-Mar-2020 SA3,11703.0,Sydney Inner City,117.0,Sydney - City and Inner South,R1,-33.8688197,151.2092955,11703133746.0,11703133746.0,117031337.0,Sydney - Haymarket - The Rocks,11703.0,Sydney Inner City,117.0,Sydney - City and Inner South,1.0,1.0,1.0,1.0,,,N1,PHN101,,Mosman,15350.0,Sydney,
563,1173,SYDNEY,NSW,151.268071,-33.794883,,LVR,Updated 25-Mar-2020 SA3,11703.0,Sydney Inner City,117.0,Sydney - City and Inner South,R1,-33.8688197,151.2092955,11703133746.0,11703133746.0,117031337.0,Sydney - Haymarket - The Rocks,11703.0,Sydney Inner City,117.0,Sydney - City and Inner South,1.0,1.0,1.0,1.0,,,N1,PHN101,,Mosman,15350.0,Sydney,
564,1174,SYDNEY,NSW,151.268071,-33.794883,,LVR,Updated 25-Mar-2020 SA3,11703.0,Sydney Inner City,117.0,Sydney - City and Inner South,R1,-33.8688197,151.2092955,11703133746.0,11703133746.0,117031337.0,Sydney - Haymarket - The Rocks,11703.0,Sydney Inner City,117.0,Sydney - City and Inner South,1.0,1.0,1.0,1.0,,,N1,PHN101,,Mosman,15350.0,Sydney,
565,1175,SYDNEY,NSW,151.268071,-33.794883,,LVR,Updated 25-Mar-2020 SA3,11703.0,Sydney Inner City,117.0,Sydney - City and Inner South,R1,-33.8688197,151.2092955,11703133746.0,11703133746.0,117031337.0,Sydney - Haymarket - The Rocks,11703.0,Sydney Inner City,117.0,Sydney - City and Inner South,1.0,1.0,1.0,1.0,,,N1,PHN101,,Mosman,15350.0,Sydney,
566,1176,SYDNEY,NSW,151.268071,-33.794883,,LVR,Updated 25-Mar-2020 SA3,11703.0,Sydney Inner City,117.0,Sydney - City and Inner South,R1,-33.8688197,151.2092955,11703133746.0,11703133746.0,117031337.0,Sydney - Haymarket - The Rocks,11703.0,Sydney Inner City,117.0,Sydney - City and Inner South,1.0,1.0,1.0,1.0,,,N1,PHN101,,Mosman,15350.0,Sydney,
567,1177,SYDNEY,NSW,151.268071,-33.794883,,LVR,Updated 25-Mar-2020 SA3,11703.0,Sydney Inner City,117.0,Sydney - City and Inner South,R1,-33.8688197,151.2092955,11703133746.0,11703133746.0,117031337.0,Sydney - Haymarket - The Rocks,11703.0,Sydney Inner City,117.0,Sydney - City and Inner South,1.0,1.0,1.0,1.0,,,N1,PHN101,,Mosman,15350.0,Sydney,
568,1178,SYDNEY,NSW,151.268071,-33.794883,,LVR,Updated 25-Mar-2020 SA3,11703.0,Sydney Inner City,117.0,Sydney - City and Inner South,R1,-33.8688197,151.2092955,11703133746.0,11703133746.0,117031337.0,Sydney - Haymarket - The Rocks,11703.0,Sydney Inner City,117.0,Sydney - City and Inner South,1.0,1.0,1.0,1.0,,,N1,PHN101,,Mosman,15350.0,Sydney,
569,1179,SYDNEY,NSW,151.268071,-33.794883,,LVR,Updated 25-Mar-2020 SA3,11703.0,Sydney Inner City,117.0,Sydney - City and Inner South,R1,-33.8688197,151.2092955,11703133746.0,11703133746.0,117031337.0,Sydney - Haymarket - The Rocks,11703.0,Sydney Inner City,117.0,Sydney - City and Inner South,1.0,1.0,1.0,1.0,,,N1,PHN101,,Mosman,15350.0,Sydney,
570,1180,SYDNEY,NSW,151.268071,-33.794883,,LVR,Updated 25-Mar-2020 SA3,11703.0,Sydney Inner City,117.0,Sydney - City and Inner South,R1,-33.8688197,151.2092955,11703133746.0,11703133746.0,117031337.0,Sydney - Haymarket - The Rocks,11703.0,Sydney Inner City,117.0,Sydney - City and Inner South,1.0,1.0,1.0,1.0,,,N1,PHN101,,Mosman,15350.0,Sydney,
571,1181,SYDNEY,NSW,151.268071,-33.794883,EAST SUBS MC,LVR,Updated 25-Mar-2020 SA3,11703.0,Sydney Inner City,117.0,Sydney - City and Inner South,R1,-33.8688197,151.2092955,11703133746.0,11703133746.0,117031337.0,Sydney - Haymarket - The Rocks,11703.0,Sydney Inner City,117.0,Sydney - City and Inner South,1.0,1.0,1.0,1.0,,,N1,PHN101,,Mosman,15350.0,Sydney,
572,1182,SYDNEY,NSW,151.268071,-33.794883,EAST SUBS MC,LVR,Updated 25-Mar-2020 SA3,11703.0,Sydney Inner City,117.0,Sydney - City and Inner South,R1,-33.8688197,151.2092955,11703133746.0,11703133746.0,117031337.0,Sydney - Haymarket - The Rocks,11703.0,Sydney Inner City,117.0,Sydney - City and Inner South,1.0,1.0,1.0,1.0,,,N1,PHN101,,Mosman,15350.0,Sydney,
573,1183,SYDNEY,NSW,151.268071,-33.794883,EAST SUBS MC,LVR,Updated 25-Mar-2020 SA3,11703.0,Sydney Inner City,117.0,Sydney - City and Inner South,R1,-33.8688197,151.2092955,11703133746.0,11703133746.0,117031337.0,Sydney - Haymarket - The Rocks,11703.0,Sydney Inner City,117.0,Sydney - City and Inner South,1.0,1.0,1.0,1.0,,,N1,PHN101,,Mosman,15350.0,Sydney,
574,1184,SYDNEY,NSW,151.268071,-33.794883,EAST SUBS MC,LVR,Updated 25-Mar-2020 SA3,11703.0,Sydney Inner City,117.0,Sydney - City and Inner South,R1,-33.8688197,151.2092955,11703133746.0,11703133746.0,117031337.0,Sydney - Haymarket - The Rocks,11703.0,Sydney Inner City,117.0,Sydney - City and Inner South,1.0,1.0,1.0,1.0,,,N1,PHN101,,Mosman,15350.0,Sydney,
575,1185,SYDNEY,NSW,151.268071,-33.794883,EAST SUBS MC,LVR,Updated 25-Mar-2020 SA3,11703.0,Sydney Inner City,117.0,Sydney - City and Inner South,R1,-33.8688197,151.2092955,11703133746.0,11703133746.0,117031337.0,Sydney - Haymarket - The Rocks,11703.0,Sydney Inner City,117.0,Sydney - City and Inner South,1.0,1.0,1.0,1.0,,,N1,PHN101,,Mosman,15350.0,Sydney,
576,1186,SYDNEY,NSW,151.268071,-33.794883,,LVR,Updated 25-Mar-2020 SA3,11703.0,Sydney Inner City,117.0,Sydney - City and Inner South,R1,-33.8688197,151.2092955,11703133746.0,11703133746.0,117031337.0,Sydney - Haymarket - The Rocks,11703.0,Sydney Inner City,117.0,Sydney - City and Inner South,1.0,1.0,1.0,1.0,,,N1,PHN101,,Mosman,15350.0,Sydney,
577,1187,SYDNEY,NSW,151.268071,-33.794883,,LVR,Updated 25-Mar-2020 SA3,11703.0,Sydney Inner City,117.0,Sydney - City and Inner South,R1,-33.8688197,151.2092955,11703133746.0,11703133746.0,117031337.0,Sydney - Haymarket - The Rocks,11703.0,Sydney Inner City,117.0,Sydney - City and Inner South,1.0,1.0,1.0,1.0,,,N1,PHN101,,Mosman,15350.0,Sydney,
578,1188,SYDNEY,NSW,151.268071,-33.794883,,LVR,Updated 25-Mar-2020 SA3,11703.0,Sydney Inner City,117.0,Sydney - City and Inner South,R1,-33.8688197,151.2092955,11703133746.0,11703133746.0,117031337.0,Sydney - Haymarket - The Rocks,11703.0,Sydney Inner City,117.0,Sydney - City and Inner South,1.0,1.0,1.0,1.0,,,N1,PHN101,,Mosman,15350.0,Sydney,
579,1189,SYDNEY,NSW,151.268071,-33.794883,,LVR,Updated 25-Mar-2020 SA3,11703.0,Sydney Inner City,117.0,Sydney - City and Inner South,R1,-33.8688197,151.2092955,11703133746.0,11703133746.0,117031337.0,Sydney - Haymarket - The Rocks,11703.0,Sydney Inner City,117.0,Sydney - City and Inner South,1.0,1.0,1.0,1.0,,,N1,PHN101,,Mosman,15350.0,Sydney,
580,1190,SYDNEY,NSW,151.268071,-33.794883,,LVR,Updated 25-Mar-2020 SA3,11703.0,Sydney Inner City,117.0,Sydney - City and Inner South,R1,-33.8688197,151.2092955,11703133746.0,11703133746.0,117031337.0,Sydney - Haymarket - The Rocks,11703.0,Sydney Inner City,117.0,Sydney - City and Inner South,1.0,1.0,1.0,1.0,,,N1,PHN101,,Mosman,15350.0,Sydney,
581,1191,SYDNEY,NSW,151.268071,-33.794883,,LVR,Updated 25-Mar-2020 SA3,11703.0,Sydney Inner City,117.0,Sydney - City and Inner South,R1,-33.8688197,151.2092955,11703133746.0,11703133746.0,117031337.0,Sydney - Haymarket - The Rocks,11703.0,Sydney Inner City,117.0,Sydney - City and Inner South,1.0,1.0,1.0,1.0,,,N1,PHN101,,Mosman,15350.0,Sydney,
582,1192,SYDNEY,NSW,147.685283,-34.790684,,LVR,Updated 25-Mar-2020 SA3,11703.0,Sydney Inner City,117.0,Sydney - City and Inner South,R1,-33.8688197,151.2092955,11703133746.0,11703133746.0,117031337.0,Sydney - Haymarket - The Rocks,11703.0,Sydney Inner City,117.0,Sydney - City and Inner South,1.0,1.0,1.0,1.0,,,N1,PHN101,,Junee,14300.0,Sydney,
583,1193,SYDNEY,NSW,151.268071,-33.794883,,LVR,Updated 25-Mar-2020 SA3,11703.0,Sydney Inner City,117.0,Sydney - City and Inner South,R1,-33.8688197,151.2092955,11703133746.0,11703133746.0,117031337.0,Sydney - Haymarket - The Rocks,11703.0,Sydney Inner City,117.0,Sydney - City and Inner South,1.0,1.0,1.0,1.0,,,N1,PHN101,,Mosman,15350.0,Sydney,
584,1194,SYDNEY,NSW,151.268071,-33.794883,,LVR,Updated 25-Mar-2020 SA3,11703.0,Sydney Inner City,117.0,Sydney - City and Inner South,R1,-33.8688197,151.2092955,11703133746.0,11703133746.0,117031337.0,Sydney - Haymarket - The Rocks,11703.0,Sydney Inner City,117.0,Sydney - City and Inner South,1.0,1.0,1.0,1.0,,,N1,PHN101,,Mosman,15350.0,Sydney,
585,1195,SYDNEY,NSW,151.268071,-33.794883,,LVR,Updated 25-Mar-2020 SA3,11703.0,Sydney Inner City,117.0,Sydney - City and Inner South,R1,-33.8688197,151.2092955,11703133746.0,11703133746.0,117031337.0,Sydney - Haymarket - The Rocks,11703.0,Sydney Inner City,117.0,Sydney - City and Inner South,1.0,1.0,1.0,1.0,,,N1,PHN101,,Mosman,15350.0,Sydney,
586,1196,SYDNEY,NSW,151.268071,-33.794883,,LVR,Updated 25-Mar-2020 SA3,11703.0,Sydney Inner City,117.0,Sydney - City and Inner South,R1,-33.8688197,151.2092955,11703133746.0,11703133746.0,117031337.0,Sydney - Haymarket - The Rocks,11703.0,Sydney Inner City,117.0,Sydney - City and Inner South,1.0,1.0,1.0,1.0,,,N1,PHN101,,Mosman,15350.0,Sydney,
587,1197,SYDNEY,NSW,151.268071,-33.794883,,LVR,Updated 25-Mar-2020 SA3,11703.0,Sydney Inner City,117.0,Sydney - City and Inner South,R1,-33.8688197,151.2092955,11703133746.0,11703133746.0,117031337.0,Sydney - Haymarket - The Rocks,11703.0,Sydney Inner City,117.0,Sydney - City and Inner South,1.0,1.0,1.0,1.0,,,N1,PHN101,,Mosman,15350.0,Sydney,
588,1198,SYDNEY,NSW,151.268071,-33.794883,,LVR,Updated 25-Mar-2020 SA3,11703.0,Sydney Inner City,117.0,Sydney - City and Inner South,R1,-33.8688197,151.2092955,11703133746.0,11703133746.0,117031337.0,Sydney - Haymarket - The Rocks,11703.0,Sydney Inner City,117.0,Sydney - City and Inner South,1.0,1.0,1.0,1.0,,,N1,PHN101,,Mosman,15350.0,Sydney,
589,1199,SYDNEY,NSW,151.268071,-33.794883,,LVR,Updated 25-Mar-2020 SA3,11703.0,Sydney Inner City,117.0,Sydney - City and Inner South,R1,-33.8688197,151.2092955,11703133746.0,11703133746.0,117031337.0,Sydney - Haymarket - The Rocks,11703.0,Sydney Inner City,117.0,Sydney - City and Inner South,1.0,1.0,1.0,1.0,,,N1,PHN101,,Mosman,15350.0,Sydney,
591,1201,SYDNEY,NSW,151.268071,-33.794883,EAST SUBS MC,LVR,Updated 25-Mar-2020 SA3,11703.0,Sydney Inner City,117.0,Sydney - City and Inner South,R1,-33.8688197,151.2092955,11703133746.0,11703133746.0,117031337.0,Sydney - Haymarket - The Rocks,11703.0,Sydney Inner City,117.0,Sydney - City and Inner South,1.0,1.0,1.0,1.0,,,N1,PHN101,,Mosman,15350.0,Sydney,
592,1202,SYDNEY,NSW,151.268071,-33.794883,EAST SUBS MC,LVR,Updated 25-Mar-2020 SA3,11703.0,Sydney Inner City,117.0,Sydney - City and Inner South,R1,-33.8688197,151.2092955,11703133746.0,11703133746.0,117031337.0,Sydney - Haymarket - The Rocks,11703.0,Sydney Inner City,117.0,Sydney - City and Inner South,1.0,1.0,1.0,1.0,,,N1,PHN101,,Mosman,15350.0,Sydney,
593,1203,SYDNEY,NSW,151.268071,-33.794883,EAST SUBS MC,LVR,Updated 25-Mar-2020 SA3,11703.0,Sydney Inner City,117.0,Sydney - City and Inner South,R1,-33.8688197,151.2092955,11703133746.0,11703133746.0,117031337.0,Sydney - Haymarket - The Rocks,11703.0,Sydney Inner City,117.0,Sydney - City and Inner South,1.0,1.0,1.0,1.0,,,N1,PHN101,,Mosman,15350.0,Sydney,
595,1205,SYDNEY,NSW,151.268071,-33.794883,EAST SUBS MC,LVR,Updated 25-Mar-2020 SA3,11703.0,Sydney Inner City,117.0,Sydney - City and Inner South,R1,-33.8688197,151.2092955,11703133746.0,11703133746.0,117031337.0,Sydney - Haymarket - The Rocks,11703.0,Sydney Inner City,117.0,Sydney - City and Inner South,1.0,1.0,1.0,1.0,,,N1,PHN101,,Mosman,15350.0,Sydney,
597,1207,SYDNEY,NSW,151.268071,-33.794883,EAST SUBS MC,LVR,Updated 25-Mar-2020 SA3,11703.0,Sydney Inner City,117.0,Sydney - City and Inner South,R1,-33.8688197,151.2092955,11703133746.0,11703133746.0,117031337.0,Sydney - Haymarket - The Rocks,11703.0,Sydney Inner City,117.0,Sydney - City and Inner South,1.0,1.0,1.0,1.0,,,N1,PHN101,,Mosman,15350.0,Sydney,
598,1208,HAYMARKET,NSW,151.659454,-29.816475,,LVR,Updated 25-Mar-2020 SA3,11703.0,Sydney Inner City,117.0,Sydney - City and Inner South,R1,-33.88092,151.20294,11703133715.0,11703133753.0,117031337.0,Sydney - Haymarket - The Rocks,11703.0,Sydney Inner City,117.0,Sydney - City and Inner South,1.0,1.0,1.0,1.0,,1094.21118164063,N1,,,Glen Innes Severn,13010.0,Sydney,
599,1209,AUSTRALIA SQUARE,NSW,151.176251,-33.891788,,LVR,Updated 25-Jan-2020,,,,,R1,-33.8646583,151.2077003,11703133751.0,11703133751.0,117031337.0,Sydney - Haymarket - The Rocks,11703.0,Sydney Inner City,117.0,Sydney - City and Inner South,1.0,1.0,1.0,1.0,,,N1,,,Inner West,14170.0,Sydney,
600,1210,AUSTRALIA SQUARE,NSW,151.176251,-33.891788,EAST SUBS MC,LVR,Updated 25-Jan-2020,,,,,R1,-33.8646583,151.2077003,11703133751.0,11703133751.0,117031337.0,Sydney - Haymarket - The Rocks,11703.0,Sydney Inner City,117.0,Sydney - City and Inner South,1.0,1.0,1.0,1.0,,,N1,,,Inner West,14170.0,Sydney,
601,1211,AUSTRALIA SQUARE,NSW,151.176251,-33.891788,,LVR,Updated 25-Jan-2020,,,,,R1,-33.8646583,151.2077003,11703133751.0,11703133751.0,117031337.0,Sydney - Haymarket - The Rocks,11703.0,Sydney Inner City,117.0,Sydney - City and Inner South,1.0,1.0,1.0,1.0,,,N1,,,Inner West,14170.0,Sydney,
602,1212,AUSTRALIA SQUARE,NSW,151.176251,-33.891788,,LVR,Updated 25-Jan-2020,,,,,R1,-33.8650889,151.2077472,11703133751.0,11703133751.0,117031337.0,Sydney - Haymarket - The Rocks,11703.0,Sydney Inner City,117.0,Sydney - City and Inner South,1.0,1.0,1.0,1.0,,,N1,,,Inner West,14170.0,Sydney,
603,1213,AUSTRALIA SQUARE,NSW,151.176251,-33.891788,,LVR,Updated 25-Jan-2020,,,,,R1,-33.8646583,151.2077003,11703133751.0,11703133751.0,117031337.0,Sydney - Haymarket - The Rocks,11703.0,Sydney Inner City,117.0,Sydney - City and Inner South,1.0,1.0,1.0,1.0,,,N1,,,Inner West,14170.0,Sydney,
604,1214,AUSTRALIA SQUARE,NSW,151.176251,-33.891788,AUSTRALIA SQUARE POST SHOP,LVR,Updated 25-Jan-2020,,,,,R1,-33.8646583,151.2077003,11703133751.0,11703133751.0,117031337.0,Sydney - Haymarket - The Rocks,11703.0,Sydney Inner City,117.0,Sydney - City and Inner South,1.0,1.0,1.0,1.0,,,N1,,,Inner West,14170.0,Sydney,
605,1215,AUSTRALIA SQUARE,NSW,151.176251,-33.891788,AUSTRALIA SQUARE POST SHOP,Post Office Boxes,Updated 25-Jan-2020,,,,,R1,-33.8650889,151.2077472,11703133751.0,11703133751.0,117031337.0,Sydney - Haymarket - The Rocks,11703.0,Sydney Inner City,117.0,Sydney - City and Inner South,1.0,1.0,1.0,1.0,,,N1,,,Inner West,14170.0,Sydney,
606,1216,GROSVENOR PLACE,NSW,151.034025,-33.741311,,LVR,Updated 25-Jan-2020,,,,,R1,-33.7421131,151.0336854,11501129616.0,11501129616.0,115011296.0,West Pennant Hills,11501.0,Baulkham Hills,115.0,Sydney - Baulkham Hills and Hawkesbury,1.0,1.0,1.0,1.0,,135.83283996582,N1,,,Parramatta,16260.0,Sydney,
607,1217,GROSVENOR PLACE,NSW,151.034025,-33.741311,,LVR,Updated 25-Jan-2020,,,,,R1,-33.7421131,151.0336854,11501129616.0,11501129616.0,115011296.0,West Pennant Hills,11501.0,Baulkham Hills,115.0,Sydney - Baulkham Hills and Hawkesbury,1.0,1.0,1.0,1.0,,135.83283996582,N1,,,Parramatta,16260.0,Sydney,
608,1218,GROSVENOR PLACE,NSW,151.034025,-33.741311,,LVR,Updated 25-Jan-2020,,,,,R1,-33.7421131,151.0336854,11501129616.0,11501129616.0,115011296.0,West Pennant Hills,11501.0,Baulkham Hills,115.0,Sydney - Baulkham Hills and Hawkesbury,1.0,1.0,1.0,1.0,,135.83283996582,N1,,,Parramatta,16260.0,Sydney,
609,1219,GROSVENOR PLACE,NSW,151.034025,-33.741311,GROSVENOR PLACE POST SHOP,LVR,Updated 25-Jan-2020,,,,,R1,-33.7421131,151.0336854,11501129616.0,11501129616.0,115011296.0,West Pennant Hills,11501.0,Baulkham Hills,115.0,Sydney - Baulkham Hills and Hawkesbury,1.0,1.0,1.0,1.0,,135.83283996582,N1,,,Parramatta,16260.0,Sydney,
610,1220,GROSVENOR PLACE,NSW,151.034025,-33.741311,GROSVENOR PLACE POST SHOP,Post Office Boxes,Updated 25-Jan-2020,,,,,R1,-33.0100063,151.6579131,11101121318.0,11101121318.0,111011213.0,Valentine - Eleebana,11101.0,Lake Macquarie - East,111.0,Newcastle and Lake Macquarie,1.0,1.0,1.0,1.0,,135.83283996582,N1,,,Parramatta,16260.0,Sydney,
611,1221,ROYAL EXCHANGE,NSW,151.207905,-33.86533,,LVR,Updated 25-Jan-2020,,,,,R1,-33.8638362,151.2092356,11703133751.0,11703133751.0,117031337.0,Sydney - Haymarket - The Rocks,11703.0,Sydney Inner City,117.0,Sydney - City and Inner South,1.0,1.0,1.0,1.0,,,N1,,,Sydney,17200.0,Sydney,
612,1222,ROYAL EXCHANGE,NSW,151.207905,-33.86533,,LVR,Updated 25-Jan-2020,,,,,R1,-33.8638362,151.2092356,11703133751.0,11703133751.0,117031337.0,Sydney - Haymarket - The Rocks,11703.0,Sydney Inner City,117.0,Sydney - City and Inner South,1.0,1.0,1.0,1.0,,,N1,,,Sydney,17200.0,Sydney,
613,1223,ROYAL EXCHANGE,NSW,151.207905,-33.86533,,LVR,Updated 25-Jan-2020,,,,,R1,-33.8638362,151.2092356,11703133751.0,11703133751.0,117031337.0,Sydney - Haymarket - The Rocks,11703.0,Sydney Inner City,117.0,Sydney - City and Inner South,1.0,1.0,1.0,1.0,,,N1,,,Sydney,17200.0,Sydney,
614,1224,ROYAL EXCHANGE,NSW,151.207905,-33.86533,ROYAL EXCHANGE POST SHOP,LVR,Updated 25-Jan-2020,,,,,R1,-33.8638362,151.2092356,11703133751.0,11703133751.0,117031337.0,Sydney - Haymarket - The Rocks,11703.0,Sydney Inner City,117.0,Sydney - City and Inner South,1.0,1.0,1.0,1.0,,,N1,,,Sydney,17200.0,Sydney,
615,1225,ROYAL EXCHANGE,NSW,151.207905,-33.86533,ROYAL EXCHANGE POST SHOP,Post Office Boxes,Updated 25-Jan-2020,,,,,R1,-33.8638362,151.2092356,11703133751.0,11703133751.0,117031337.0,Sydney - Haymarket - The Rocks,11703.0,Sydney Inner City,117.0,Sydney - City and Inner South,1.0,1.0,1.0,1.0,Sydney,,N1,,,Sydney,17200.0,Sydney,
616,1226,QUEEN VICTORIA BUILDING,NSW,151.206708,-33.871749,,LVR,Updated 25-Jan-2020,,,,,R1,-33.871722,151.2067078,11703133747.0,11703133747.0,117031337.0,Sydney - Haymarket - The Rocks,11703.0,Sydney Inner City,117.0,Sydney - City and Inner South,1.0,1.0,1.0,1.0,,25.3279323577881,N1,,,Sydney,17200.0,Sydney,
617,1227,QUEEN VICTORIA BUILDING,NSW,151.206708,-33.871749,,LVR,Updated 25-Jan-2020,,,,,R1,-33.871722,151.2067078,11703133747.0,11703133747.0,117031337.0,Sydney - Haymarket - The Rocks,11703.0,Sydney Inner City,117.0,Sydney - City and Inner South,1.0,1.0,1.0,1.0,,25.3279323577881,N1,,,Sydney,17200.0,Sydney,
618,1228,QUEEN VICTORIA BUILDING,NSW,151.206708,-33.871749,,LVR,Updated 25-Jan-2020,,,,,R1,-33.871722,151.2067078,11703133747.0,11703133747.0,117031337.0,Sydney - Haymarket - The Rocks,11703.0,Sydney Inner City,117.0,Sydney - City and Inner South,1.0,1.0,1.0,1.0,,25.3279323577881,N1,,,Sydney,17200.0,Sydney,
619,1229,QUEEN VICTORIA BUILDING,NSW,151.206708,-33.871749,QUEEN VICTORIA BUILD POST SHOP,LVR,Updated 25-Jan-2020,,,,,R1,-33.871722,151.2067078,11703133747.0,11703133747.0,117031337.0,Sydney - Haymarket - The Rocks,11703.0,Sydney Inner City,117.0,Sydney - City and Inner South,1.0,1.0,1.0,1.0,,25.3279323577881,N1,,,Sydney,17200.0,Sydney,
620,1230,QUEEN VICTORIA BUILDING,NSW,151.206708,-33.871749,QUEEN VICTORIA BUILD POST SHOP,Post Office Boxes,Updated 25-Jan-2020,,,,,R1,-33.871722,151.2067078,11703133747.0,11703133747.0,117031337.0,Sydney - Haymarket - The Rocks,11703.0,Sydney Inner City,117.0,Sydney - City and Inner South,1.0,1.0,1.0,1.0,Sydney,25.3279323577881,N1,,,Sydney,17200.0,Sydney,
621,1231,SYDNEY SOUTH,NSW,151.042528,-33.815551,SYDNEY SOUTH-RET,LVR,Updated 25-Mar-2020 SA3,11703.0,Sydney Inner City,117.0,Sydney - City and Inner South,R1,-33.8688197,151.2092955,11703133746.0,11703133746.0,117031337.0,Sydney - Haymarket - The Rocks,11703.0,Sydney Inner City,117.0,Sydney - City and Inner South,1.0,1.0,1.0,1.0,,,N1,,,Parramatta,16260.0,Sydney,
622,1232,SYDNEY SOUTH,NSW,151.042528,-33.815551,EAST SUBS MC,LVR,Updated 25-Mar-2020 SA3,11703.0,Sydney Inner City,117.0,Sydney - City and Inner South,R1,-33.8688197,151.2092955,11703133746.0,11703133746.0,117031337.0,Sydney - Haymarket - The Rocks,11703.0,Sydney Inner City,117.0,Sydney - City and Inner South,1.0,1.0,1.0,1.0,,,N1,,,Parramatta,16260.0,Sydney,
623,1233,SYDNEY SOUTH,NSW,151.042528,-33.815551,,LVR,Updated 25-Mar-2020 SA3,11703.0,Sydney Inner City,117.0,Sydney - City and Inner South,R1,-33.8688197,151.2092955,11703133746.0,11703133746.0,117031337.0,Sydney - Haymarket - The Rocks,11703.0,Sydney Inner City,117.0,Sydney - City and Inner South,1.0,1.0,1.0,1.0,,,N1,,,Parramatta,16260.0,Sydney,
624,1234,SYDNEY SOUTH,NSW,151.042528,-33.815551,SYDNEY SOUTH POST SHOP,LVR,Updated 25-Mar-2020 SA3,11703.0,Sydney Inner City,117.0,Sydney - City and Inner South,R1,-33.8688197,151.2092955,11703133746.0,11703133746.0,117031337.0,Sydney - Haymarket - The Rocks,11703.0,Sydney Inner City,117.0,Sydney - City and Inner South,1.0,1.0,1.0,1.0,,,N1,,,Parramatta,16260.0,Sydney,
625,1235,SYDNEY SOUTH,NSW,151.042528,-33.815551,SYDNEY SOUTH POST SHOP,Post Office Boxes,Updated 25-Mar-2020 SA3,11703.0,Sydney Inner City,117.0,Sydney - City and Inner South,R1,-33.8688197,151.2092955,11703133746.0,11703133746.0,117031337.0,Sydney - Haymarket - The Rocks,11703.0,Sydney Inner City,117.0,Sydney - City and Inner South,1.0,1.0,1.0,1.0,Sydney,,N1,,,Parramatta,16260.0,Sydney,
626,1236,HAYMARKET,NSW,151.659454,-29.816475,HAYMARKET POST SHOP,LVR,Updated 25-Mar-2020 SA3,11703.0,Sydney Inner City,117.0,Sydney - City and Inner South,R1,-33.88092,151.20294,11703133715.0,11703133753.0,117031337.0,Sydney - Haymarket - The Rocks,11703.0,Sydney Inner City,117.0,Sydney - City and Inner South,1.0,1.0,1.0,1.0,,1094.21118164063,N1,,,Glen Innes Severn,13010.0,Sydney,
627,1237,HAYMARKET,NSW,151.659454,-29.816475,HAYMARKET POST SHOP,LVR,Updated 25-Mar-2020 SA3,11703.0,Sydney Inner City,117.0,Sydney - City and Inner South,R1,-33.88092,151.20294,11703133715.0,11703133753.0,117031337.0,Sydney - Haymarket - The Rocks,11703.0,Sydney Inner City,117.0,Sydney - City and Inner South,1.0,1.0,1.0,1.0,,1094.21118164063,N1,,,Glen Innes Severn,13010.0,Sydney,
628,1238,HAYMARKET,NSW,151.659454,-29.816475,HAYMARKET POST SHOP,LVR,Updated 25-Mar-2020 SA3,11703.0,Sydney Inner City,117.0,Sydney - City and Inner South,R1,-33.88092,151.20294,11703133715.0,11703133753.0,117031337.0,Sydney - Haymarket - The Rocks,11703.0,Sydney Inner City,117.0,Sydney - City and Inner South,1.0,1.0,1.0,1.0,,1094.21118164063,N1,,,Glen Innes Severn,13010.0,Sydney,
629,1239,HAYMARKET,NSW,151.659454,-29.816475,HAYMARKET POST SHOP,LVR,Updated 25-Mar-2020 SA3,11703.0,Sydney Inner City,117.0,Sydney - City and Inner South,R1,-33.88092,151.20294,11703133715.0,11703133753.0,117031337.0,Sydney - Haymarket - The Rocks,11703.0,Sydney Inner City,117.0,Sydney - City and Inner South,1.0,1.0,1.0,1.0,,1094.21118164063,N1,,,Glen Innes Severn,13010.0,Sydney,
630,1240,HAYMARKET,NSW,151.659454,-29.816475,HAYMARKET POST SHOP,Post Office Boxes,Updated 25-Mar-2020 SA3,11703.0,Sydney Inner City,117.0,Sydney - City and Inner South,R1,-33.88092,151.20294,11703133715.0,11703133753.0,117031337.0,Sydney - Haymarket - The Rocks,11703.0,Sydney Inner City,117.0,Sydney - City and Inner South,1.0,1.0,1.0,1.0,Sydney,1094.21118164063,N1,,,Glen Innes Severn,13010.0,Sydney,
631,1291,SYDNEY,NSW,151.268071,-33.794883,EAST SUBS MC,LVR,Updated 25-Mar-2020 SA3,11703.0,Sydney Inner City,117.0,Sydney - City and Inner South,R1,-33.8688197,151.2092955,11703133746.0,11703133746.0,117031337.0,Sydney - Haymarket - The Rocks,11703.0,Sydney Inner City,117.0,Sydney - City and Inner South,1.0,1.0,1.0,1.0,,,N1,PHN101,,Mosman,15350.0,Sydney,
632,1292,SYDNEY,NSW,151.268071,-33.794883,EAST SUBS MC,LVR,Updated 25-Mar-2020 SA3,11703.0,Sydney Inner City,117.0,Sydney - City and Inner South,R1,-33.8688197,151.2092955,11703133746.0,11703133746.0,117031337.0,Sydney - Haymarket - The Rocks,11703.0,Sydney Inner City,117.0,Sydney - City and Inner South,1.0,1.0,1.0,1.0,,,N1,PHN101,,Mosman,15350.0,Sydney,
633,1293,SYDNEY,NSW,151.268071,-33.794883,,LVR,Updated 25-Mar-2020 SA3,11703.0,Sydney Inner City,117.0,Sydney - City and Inner South,R1,-33.8688197,151.2092955,11703133746.0,11703133746.0,117031337.0,Sydney - Haymarket - The Rocks,11703.0,Sydney Inner City,117.0,Sydney - City and Inner South,1.0,1.0,1.0,1.0,,,N1,PHN101,,Mosman,15350.0,Sydney,
634,1294,SYDNEY,NSW,151.268071,-33.794883,,LVR,Updated 25-Mar-2020 SA3,11703.0,Sydney Inner City,117.0,Sydney - City and Inner South,R1,-33.8688197,151.2092955,11703133746.0,11703133746.0,117031337.0,Sydney - Haymarket - The Rocks,11703.0,Sydney Inner City,117.0,Sydney - City and Inner South,1.0,1.0,1.0,1.0,,,N1,PHN101,,Mosman,15350.0,Sydney,
635,1295,SYDNEY,NSW,151.268071,-33.794883,,LVR,Updated 25-Mar-2020 SA3,11703.0,Sydney Inner City,117.0,Sydney - City and Inner South,R1,-33.8688197,151.2092955,11703133746.0,11703133746.0,117031337.0,Sydney - Haymarket - The Rocks,11703.0,Sydney Inner City,117.0,Sydney - City and Inner South,1.0,1.0,1.0,1.0,,,N1,PHN101,,Mosman,15350.0,Sydney,
636,1296,SYDNEY,NSW,151.268071,-33.794883,,LVR,Updated 25-Mar-2020 SA3,11703.0,Sydney Inner City,117.0,Sydney - City and Inner South,R1,-33.8688197,151.2092955,11703133746.0,11703133746.0,117031337.0,Sydney - Haymarket - The Rocks,11703.0,Sydney Inner City,117.0,Sydney - City and Inner South,1.0,1.0,1.0,1.0,,,N1,PHN101,,Mosman,15350.0,Sydney,
637,1297,SYDNEY,NSW,151.268071,-33.794883,,LVR,Updated 25-Mar-2020 SA3,11703.0,Sydney Inner City,117.0,Sydney - City and Inner South,R1,-33.8688197,151.2092955,11703133746.0,11703133746.0,117031337.0,Sydney - Haymarket - The Rocks,11703.0,Sydney Inner City,117.0,Sydney - City and Inner South,1.0,1.0,1.0,1.0,,,N1,PHN101,,Mosman,15350.0,Sydney,
638,1298,SYDNEY,NSW,151.268071,-33.794883,,LVR,Updated 25-Mar-2020 SA3,11703.0,Sydney Inner City,117.0,Sydney - City and Inner South,R1,-33.8688197,151.2092955,11703133746.0,11703133746.0,117031337.0,Sydney - Haymarket - The Rocks,11703.0,Sydney Inner City,117.0,Sydney - City and Inner South,1.0,1.0,1.0,1.0,,,N1,PHN101,,Mosman,15350.0,Sydney,
639,1299,SYDNEY,NSW,151.268071,-33.794883,,LVR,Updated 25-Mar-2020 SA3,11703.0,Sydney Inner City,117.0,Sydney - City and Inner South,R1,-33.8688197,151.2092955,11703133746.0,11703133746.0,117031337.0,Sydney - Haymarket - The Rocks,11703.0,Sydney Inner City,117.0,Sydney - City and Inner South,1.0,1.0,1.0,1.0,,,N1,PHN101,,Mosman,15350.0,Sydney,
640,1300,DARLINGHURST,NSW,151.220876,-33.877331,DARLINGHURST POST SHOP,Post Office Boxes,Updated 25-Mar-2020 SA3,11703.0,Sydney Inner City,117.0,Sydney - City and Inner South,R1,-33.8780176,151.2204441,11703132922.0,11703132922.0,117031329.0,Darlinghurst,11703.0,Sydney Inner City,117.0,Sydney - City and Inner South,1.0,1.0,1.0,1.0,,,N1,,,Sydney,17200.0,Sydney,
644,1314,EASTERN SUBURBS MC,NSW,151.21,-33.9508,,,,,,,,R1,-33.9508,151.21,11701132001.0,11701132001.0,117011320.0,Banksmeadow,11701.0,Botany,117.0,Sydney - City and Inner South,1.0,1.0,1.0,1.0,,10.8584213256836,N1,,,Randwick,16550.0,Durack,
665,1335,POTTS POINT,NSW,151.117575,-33.82269,POTTS POINT POST SHOP,Post Office Boxes,Updated 25-Mar-2020 SA3,11703.0,Sydney Inner City,117.0,Sydney - City and Inner South,R1,-33.86795,151.22411,11703133338.0,11703133338.0,117031333.0,Potts Point - Woolloomooloo,11703.0,Sydney Inner City,117.0,Sydney - City and Inner South,1.0,1.0,1.0,1.0,Sydney,,N1,,,Ryde,16700.0,Sydney,
666,1340,KINGS CROSS,NSW,148.021014,-35.537721,KINGS CROSS POST SHOP,Post Office Boxes,Updated 25-Mar-2020 SA3,11703.0,Sydney Inner City,117.0,Sydney - City and Inner South,R1,-33.8733512,151.2242345,11703133310.0,11703133310.0,117031333.0,Potts Point - Woolloomooloo,11703.0,Sydney Inner City,117.0,Sydney - City and Inner South,1.0,1.0,1.0,1.0,Sydney,,N1,,,Snowy Valleys,17080.0,Sydney,
667,1350,WOOLLAHRA,NSW,151.240508,-33.88871,,,Updated 25-Mar-2020 SA3,11801.0,Eastern Suburbs - North,118.0,Sydney - Eastern Suburbs,R1,-33.8865,151.242,11801134714.0,11801134714.0,118011347.0,Woollahra,11801.0,Eastern Suburbs - North,118.0,Sydney - Eastern Suburbs,1.0,1.0,1.0,1.0,,,N1,,,Woollahra,18500.0,Sydney,
668,1355,BONDI JUNCTION,NSW,151.262502,-33.893739,BONDI JUNCTION POST SHOP,Post Office Boxes,Updated 25-Mar-2020 SA3,11801.0,Eastern Suburbs - North,118.0,Sydney - Eastern Suburbs,R1,-33.89145,151.2497,11801134114.0,11801134114.0,118011341.0,Bondi Junction - Waverly,11801.0,Eastern Suburbs - North,118.0,Sydney - Eastern Suburbs,1.0,1.0,1.0,1.0,Wentworth,77.9046020507813,N1,,,Waverley,18050.0,Sydney,
669,1360,DOUBLE BAY,NSW,151.241938,-33.87584,DOUBLE BAY POST SHOP,Post Office Boxes,Updated 25-Mar-2020 SA3,11801.0,Eastern Suburbs - North,118.0,Sydney - Eastern Suburbs,R1,-33.8775,151.2412,11801134356.0,11801134356.0,118011343.0,Double Bay - Bellevue Hill,11801.0,Eastern Suburbs - North,118.0,Sydney - Eastern Suburbs,1.0,1.0,1.0,1.0,Wentworth,,N1,,,Woollahra,18500.0,Sydney,
672,1401,BROADWAY,NSW,151.199825,-33.884217,,LVR,Updated 25-Mar-2020 SA3,11703.0,Sydney Inner City,117.0,Sydney - City and Inner South,R1,-34.7057762,149.135033,10101100421.0,10106154207.0,101061542.0,Yass Region,10106.0,Young - Yass,101.0,Capital Region,2.0,2.0,5.0,5.0,,17.7965335845947,N1,,,Sydney,17200.0,Hume,
24069,1405,CHULLORA,NSW,0.0,0.0,,Post Office Boxes,Updated 3-Dec-2022,12003.0,Strathfield - Burwood - Ashfield,120.0,Sydney - Inner West,R1,0.0,0.0,,,,,,,,,,,,,,,,,,Yass Valley,,,
674,1419,SOUTHERN SUBURBS MC,NSW,151.094,-34.0641,,,,,,,,R1,-34.0641,151.094,12802153701.0,12802153701.0,128021537.0,Royal National Park,12802.0,Sutherland - Menai - Heathcote,128.0,Sydney - Sutherland,2.0,2.0,2.0,2.0,,60.0349731445313,N1,,,Sutherland Shire,17150.0,Banks,
675,1420,STRAWBERRY HILLS,NSW,150.931838,-33.726098,STRAWBERRY HILLS BC,LVR,Updated 25-Jan-2020,,,,,R1,-33.8882671,151.2078465,11703133633.0,11703133633.0,117031336.0,Surry Hills,11703.0,Sydney Inner City,117.0,Sydney - City and Inner South,1.0,1.0,1.0,1.0,,,N1,,,Blacktown,10750.0,Banks,
676,1422,STRAWBERRY HILLS,NSW,150.931838,-33.726098,,LVR,Updated 25-Jan-2020,,,,,R1,-33.8882671,151.2078465,11703133633.0,11703133633.0,117031336.0,Surry Hills,11703.0,Sydney Inner City,117.0,Sydney - City and Inner South,1.0,1.0,1.0,1.0,,,N1,,,Blacktown,10750.0,Banks,
677,1423,STRAWBERRY HILLS,NSW,150.931838,-33.726098,,LVR,Updated 25-Jan-2020,,,,,R1,-33.8882671,151.2078465,11703133633.0,11703133633.0,117031336.0,Surry Hills,11703.0,Sydney Inner City,117.0,Sydney - City and Inner South,1.0,1.0,1.0,1.0,,,N1,,,Blacktown,10750.0,Banks,
678,1424,STRAWBERRY HILLS,NSW,150.931838,-33.726098,STRAWBERRY HILLS BC,LVR,Updated 25-Jan-2020,,,,,R1,-33.8882671,151.2078465,11703133633.0,11703133633.0,117031336.0,Surry Hills,11703.0,Sydney Inner City,117.0,Sydney - City and Inner South,1.0,1.0,1.0,1.0,,,N1,,,Blacktown,10750.0,Banks,
679,1425,STRAWBERRY HILLS,NSW,150.931838,-33.726098,,LVR,Updated 25-Jan-2020,,,,,R1,-33.8882671,151.2078465,11703133633.0,11703133633.0,117031336.0,Surry Hills,11703.0,Sydney Inner City,117.0,Sydney - City and Inner South,1.0,1.0,1.0,1.0,,,N1,,,Blacktown,10750.0,Banks,
680,1426,STRAWBERRY HILLS,NSW,150.931838,-33.726098,,LVR,Updated 25-Jan-2020,,,,,R1,-33.8882671,151.2078465,11703133633.0,11703133633.0,117031336.0,Surry Hills,11703.0,Sydney Inner City,117.0,Sydney - City and Inner South,1.0,1.0,1.0,1.0,,,N1,,,Blacktown,10750.0,Banks,
681,1427,STRAWBERRY HILLS,NSW,150.931838,-33.726098,STRAWBERRY HILLS BC,LVR,Updated 25-Jan-2020,,,,,R1,-33.8882671,151.2078465,11703133633.0,11703133633.0,117031336.0,Surry Hills,11703.0,Sydney Inner City,117.0,Sydney - City and Inner South,1.0,1.0,1.0,1.0,,,N1,,,Blacktown,10750.0,Banks,
2415,1428,STRAWBERRY HILLS,NSW,150.931838,-33.726098,,LVR,Updated 25-Jan-2020,,,,,R1,-33.8882671,151.2078465,11703133633.0,11703133633.0,117031336.0,Surry Hills,11703.0,Sydney Inner City,117.0,Sydney - City and Inner South,1.0,1.0,1.0,1.0,,,N1,,,Blacktown,10750.0,Banks,
2416,1429,STRAWBERRY HILLS,NSW,150.931838,-33.726098,,LVR,Updated 25-Jan-2020,,,,,R1,-33.8882671,151.2078465,11703133633.0,11703133633.0,117031336.0,Surry Hills,11703.0,Sydney Inner City,117.0,Sydney - City and Inner South,1.0,1.0,1.0,1.0,,,N1,,,Blacktown,10750.0,Banks,
2417,1430,EVELEIGH,NSW,151.199489,-33.890232,ALEXANDRIA DF,LVR,Updated 25-Mar-2020 SA3,11703.0,Sydney Inner City,117.0,Sydney - City and Inner South,R1,-33.895,151.191,11703133508.0,11703133508.0,117031335.0,Redfern - Chippendale,11703.0,Sydney Inner City,117.0,Sydney - City and Inner South,1.0,1.0,1.0,1.0,,24.2632713317871,N1,,,Sydney,17200.0,Banks,
2418,1435,ALEXANDRIA,NSW,151.108248,-33.711785,ALEXANDRIA POST SHOP,Post Office Boxes,Updated 25-Mar-2020 SA3,11703.0,Sydney Inner City,117.0,Sydney - City and Inner South,R1,-33.9080273,151.1902576,11703133018.0,11703133018.0,117031330.0,Erskineville - Alexandria,11703.0,Sydney Inner City,117.0,Sydney - City and Inner South,1.0,1.0,1.0,1.0,Sydney,,N1,,,Ku-ring-gai,14500.0,Banks,
2419,1440,WATERLOO,NSW,151.057914,-33.902836,WATERLOO DELIVERY FACILITY,Post Office Boxes,Updated 25-Mar-2020 SA3,11703.0,Sydney Inner City,117.0,Sydney - City and Inner South,R1,-33.9002604,151.2061803,11703133836.0,11703133836.0,117031338.0,Waterloo - Beaconsfield,11703.0,Sydney Inner City,117.0,Sydney - City and Inner South,1.0,1.0,1.0,1.0,,,N1,,,Canterbury-Bankstown,11570.0,Banks,
2420,1441,WATERLOO,NSW,151.057914,-33.902836,,LVR,Updated 25-Mar-2020 SA3,11703.0,Sydney Inner City,117.0,Sydney - City and Inner South,R1,-33.9002604,151.2061803,11703133836.0,11703133836.0,117031338.0,Waterloo - Beaconsfield,11703.0,Sydney Inner City,117.0,Sydney - City and Inner South,1.0,1.0,1.0,1.0,,,N1,,,Canterbury-Bankstown,11570.0,Banks,
2421,1445,ROSEBERY,NSW,151.007691,-34.083089,ROSEBERY POST SHOP,Post Office Boxes,Updated 25-Mar-2020 SA3,11703.0,Sydney Inner City,117.0,Sydney - City and Inner South,R1,-33.9221918,151.201678,11701132243.0,11701132243.0,117011322.0,Mascot - Eastlakes,11701.0,Botany,117.0,Sydney - City and Inner South,1.0,1.0,1.0,1.0,,,N1,,,Sutherland Shire,17150.0,Banks,
2422,1450,CAMPERDOWN,NSW,153.13679,-30.305815,CAMPERDOWN BC,Post Office Boxes,Updated 25-Mar-2020 SA3,11703.0,Sydney Inner City,117.0,Sydney - City and Inner South,R1,-33.8862243,151.1791091,11703133204.0,11703133204.0,117031332.0,Newtown - Camperdown - Darlington,11703.0,Sydney Inner City,117.0,Sydney - City and Inner South,1.0,1.0,1.0,1.0,,,N1,,,Coffs Harbour,11800.0,Banks,
2423,1455,BOTANY,NSW,151.197644,-33.947087,BOTANY POST SHOP,Post Office Boxes,Updated 25-Mar-2020 SA3,11701.0,Botany,117.0,Sydney - City and Inner South,R1,-33.9469267,151.1973167,11701132117.0,11701132117.0,117011321.0,Botany,11701.0,Botany,117.0,Sydney - City and Inner South,1.0,1.0,1.0,1.0,Kingsford Smith,,N1,,,Bayside,10500.0,Banks,
2424,1460,MASCOT,NSW,151.210791,-33.926669,MASCOT POST SHOP,Post Office Boxes,Updated 25-Mar-2020 SA3,11702.0,Marrickville - Sydenham - Petersham,117.0,Sydney - City and Inner South,R1,-33.9296324,151.1946223,11701132209.0,11701132209.0,117011322.0,Mascot - Eastlakes,11701.0,Botany,117.0,Sydney - City and Inner South,1.0,1.0,1.0,1.0,Kingsford Smith,,N1,,,Randwick,16550.0,Banks,
2425,1465,KENSINGTON,NSW,151.140735,-33.888549,KENSINGTON POST SHOP,Post Office Boxes,Updated 25-Mar-2020 SA3,11802.0,Eastern Suburbs - South,118.0,Sydney - Eastern Suburbs,R1,-33.910021,151.2232749,11802134937.0,11802156411.0,118021564.0,Kensington (NSW),11802.0,Eastern Suburbs - South,118.0,Sydney - Eastern Suburbs,1.0,1.0,1.0,1.0,,,N1,,,Inner West,14170.0,Banks,
2426,1466,UNSW SYDNEY,NSW,151.234417,-33.906561,UNIVERSITY OF NSW LPO,Post Office Boxes,Updated 25-Mar-2020 SA3,11802.0,Eastern Suburbs - South,118.0,Sydney - Eastern Suburbs,R1,-33.917347,151.2312675,11802134940.0,11802156418.0,118021564.0,Kensington (NSW),11802.0,Eastern Suburbs - South,118.0,Sydney - Eastern Suburbs,1.0,1.0,1.0,1.0,,39.0145034790039,N1,,,Sydney,17200.0,Banks,
2427,1470,DRUMMOYNE,NSW,151.151958,-33.842999,DRUMMOYNE POST SHOP,Post Office Boxes,Updated 25-Mar-2020 SA3,12001.0,Canada Bay,120.0,Sydney - Inner West,R1,-33.8510541,151.1545209,12001138529.0,12001138529.0,120011385.0,Drummoyne - Rodd Point,12001.0,Canada Bay,120.0,Sydney - Inner West,1.0,1.0,1.0,1.0,Reid,11.7927551269531,N1,,,Hunters Hill,14100.0,Banks,
2428,1475,MARRICKVILLE,NSW,151.15334,-33.90911,MARRICKVILLE POST SHOP,Post Office Boxes,Updated 25-Mar-2020 SA3,12003.0,Strathfield - Burwood - Ashfield,120.0,Sydney - Inner West,R1,-33.908667,151.1524142,11702132642.0,11702132642.0,117021326.0,Marrickville,11702.0,Marrickville - Sydenham - Petersham,117.0,Sydney - City and Inner South,1.0,1.0,1.0,1.0,Grayndler,20.7586097717285,N1,,,Inner West,14170.0,Banks,
2429,1476,MARRICKVILLE,NSW,151.15334,-33.90911,,LVR,Updated 25-Mar-2020 SA3,12003.0,Strathfield - Burwood - Ashfield,120.0,Sydney - Inner West,R1,-33.908667,151.1524142,11702132642.0,11702132642.0,117021326.0,Marrickville,11702.0,Marrickville - Sydenham - Petersham,117.0,Sydney - City and Inner South,1.0,1.0,1.0,1.0,,20.7586097717285,N1,,,Inner West,14170.0,Banks,
2430,1480,KINGSGROVE,NSW,151.100027,-33.935923,KINGSGROVE POST SHOP,Post Office Boxes,Updated 25-Mar-2020 SA3,11904.0,Kogarah - Rockdale,119.0,Sydney - Inner South West,R1,-33.9386352,151.100641,11902136453.0,11902136453.0,119021364.0,Kingsgrove (North) - Earlwood,11902.0,Canterbury,119.0,Sydney - Inner South West,1.0,1.0,1.0,1.0,,25.783597946167,N1,,,Georges River,12930.0,Banks,
2431,1481,HURSTVILLE BC,NSW,151.101,-33.9646,,,,,,,,R1,-33.9646,151.101,11903136831.0,11903136831.0,119031368.0,Hurstville,11903.0,Hurstville,119.0,Sydney - Inner South West,1.0,1.0,1.0,1.0,Barton,67.4356842041016,N1,,,Georges River,12930.0,Banks,
2432,1484,KINGSGROVE DC,NSW,151.101,-33.9386,,,,,,,,R1,-33.9386,151.101,11902136453.0,11902136453.0,119021364.0,Kingsgrove (North) - Earlwood,11902.0,Canterbury,119.0,Sydney - Inner South West,1.0,1.0,1.0,1.0,,,N1,,,Georges River,12930.0,Banks,
2433,1485,KOGARAH,NSW,151.140345,-33.974354,,,Updated 25-Mar-2020 SA3,11904.0,Kogarah - Rockdale,119.0,Sydney - Inner South West,R1,-33.9644,151.137,11904137824.0,11904137824.0,119041378.0,Kogarah,11904.0,Kogarah - Rockdale,119.0,Sydney - Inner South West,1.0,1.0,1.0,1.0,Barton,4.55263948440552,N1,,,Bayside,10500.0,Banks,
2435,1490,MIRANDA,NSW,151.107201,-34.035878,STH SUBS MC,Post Office Boxes,Updated 25-Mar-2020 SA3,12801.0,Cronulla - Miranda - Caringbah,128.0,Sydney - Sutherland,R1,-34.0299364,151.1055499,12801153005.0,12801153005.0,128011530.0,Miranda - Yowie Bay,12801.0,Cronulla - Miranda - Caringbah,128.0,Sydney - Sutherland,1.0,1.0,1.0,1.0,,35.9286231994629,N1,,,Sutherland Shire,17150.0,Banks,
2436,1493,HURSTVILLE,NSW,151.088939,-33.975869,HURSTVILLE DC,LVR,Updated 25-Mar-2020 SA3,11904.0,Kogarah - Rockdale,119.0,Sydney - Inner South West,R1,-33.9645633,151.1010187,11903136831.0,11903136831.0,119031368.0,Hurstville,11903.0,Hurstville,119.0,Sydney - Inner South West,1.0,1.0,1.0,1.0,,,N1,,,Georges River,12930.0,Banks,
2437,1495,CARINGBAH,NSW,151.123943,-34.046927,CARINGBAH POST SHOP,Post Office Boxes,Updated 25-Mar-2020 SA3,12801.0,Cronulla - Miranda - Caringbah,128.0,Sydney - Sutherland,R1,-34.0452,151.1218,12801152764.0,12801160208.0,128011602.0,Caringbah,12801.0,Cronulla - Miranda - Caringbah,128.0,Sydney - Sutherland,1.0,1.0,1.0,1.0,Cook,52.0972480773926,N1,,,Sutherland Shire,17150.0,Banks,
2438,1499,SUTHERLAND,NSW,151.0622,-34.015705,STH SUBS MC,Post Office Boxes,Updated 25-Mar-2020 SA3,12802.0,Sutherland - Menai - Heathcote,128.0,Sydney - Sutherland,R1,-34.0297415,151.059275,12802153844.0,12802153844.0,128021538.0,Sutherland - Kirrawee,12802.0,Sutherland - Menai - Heathcote,128.0,Sydney - Sutherland,1.0,1.0,1.0,1.0,Hughes,,N1,,,Georges River,12930.0,Banks,
2439,1515,WEST CHATSWOOD,NSW,151.207261,-33.824607,WEST CHATSWOOD POST SHOP,Post Office Boxes,Updated 25-Jan-2020,,,,,R1,-33.7966739,151.1621677,12101139917.0,12101139917.0,121011399.0,Chatswood (West) - Lane Cove North,12101.0,Chatswood - Lane Cove,121.0,Sydney - North Sydney and Hornsby,1.0,1.0,1.0,1.0,North Sydney,,N1,,,North Sydney,15950.0,Bennelong,
2440,1560,NORTHBRIDGE,NSW,151.214797,-33.812636,,,Updated 25-Mar-2020 SA3,12101.0,Chatswood - Lane Cove,121.0,Sydney - North Sydney and Hornsby,R1,-33.8132,151.217,12101140211.0,12101140267.0,121011402.0,Willoughby - Castle Cove - Northbridge,12101.0,Chatswood - Lane Cove,121.0,Sydney - North Sydney and Hornsby,1.0,1.0,1.0,1.0,,,N1,PHN501,,Willoughby,18250.0,Bennelong,
2441,1565,MILSONS POINT,NSW,151.193071,-33.865367,MILSONS POINT,Post Office Boxes,Updated 25-Mar-2020 SA3,12104.0,North Sydney - Mosman,121.0,Sydney - North Sydney and Hornsby,R1,-33.84765,151.21201,12104141723.0,12104141723.0,121041417.0,North Sydney - Lavender Bay,12104.0,North Sydney - Mosman,121.0,Sydney - North Sydney and Hornsby,1.0,1.0,1.0,1.0,North Sydney,22.6305675506592,N1,,,Sydney,17200.0,Bennelong,
2442,1570,ARTARMON,NSW,151.192733,-33.808087,ARTARMON POST SHOP,Post Office Boxes,Updated 25-Mar-2020 SA3,12101.0,Chatswood - Lane Cove,121.0,Sydney - North Sydney and Hornsby,R1,-33.8093311,151.185647,12101139832.0,12101139832.0,121011398.0,Chatswood (East) - Artarmon,12101.0,Chatswood - Lane Cove,121.0,Sydney - North Sydney and Hornsby,1.0,1.0,1.0,1.0,,75.6533050537109,N1,,,Willoughby,18250.0,Bennelong,
2444,1585,CROWS NEST,NSW,151.20085,-33.83459,CROWS NEST POST SHOP,Post Office Boxes,Updated 25-Mar-2020 SA3,12104.0,North Sydney - Mosman,121.0,Sydney - North Sydney and Hornsby,R1,-33.82613,151.20505,12104141439.0,12104141439.0,121041414.0,Crows Nest - Waverton,12104.0,North Sydney - Mosman,121.0,Sydney - North Sydney and Hornsby,1.0,1.0,1.0,1.0,North Sydney,79.7455902099609,N1,,,North Sydney,15950.0,Bennelong,
2445,1590,ST LEONARDS,NSW,151.468652,-33.292001,ST LEONARDS POST SHOP,Post Office Boxes,Updated 25-Mar-2020 SA3,12104.0,North Sydney - Mosman,121.0,Sydney - North Sydney and Hornsby,R1,-33.8227402,151.1942171,12101140121.0,12101140123.0,121011401.0,St Leonards - Naremburn,12101.0,Chatswood - Lane Cove,121.0,Sydney - North Sydney and Hornsby,1.0,1.0,1.0,1.0,North Sydney,,N1,,,Central Coast,11650.0,Bennelong,
2446,1595,LANE COVE,NSW,151.187955,-33.791875,LANE COVE POST SHOP,Post Office Boxes,Updated 25-Mar-2020 SA3,12101.0,Chatswood - Lane Cove,121.0,Sydney - North Sydney and Hornsby,R1,-33.8148145,151.1663935,12101140019.0,12101140019.0,121011400.0,Lane Cove - Greenwich,12101.0,Chatswood - Lane Cove,121.0,Sydney - North Sydney and Hornsby,1.0,1.0,1.0,1.0,North Sydney,84.8325729370117,N1,,,Willoughby,18250.0,Bennelong,
2447,1597,LANE COVE,NSW,151.187955,-33.791875,LANE COVE POST SHOP,LVR,Updated 25-Mar-2020 SA3,12101.0,Chatswood - Lane Cove,121.0,Sydney - North Sydney and Hornsby,R1,-33.8148145,151.1663935,12101140019.0,12101140019.0,121011400.0,Lane Cove - Greenwich,12101.0,Chatswood - Lane Cove,121.0,Sydney - North Sydney and Hornsby,1.0,1.0,1.0,1.0,,84.8325729370117,N1,,,Willoughby,18250.0,Bennelong,
2448,1602,LANE COVE DC,NSW,151.166,-33.8148,,,,,,,,R1,-33.8148,151.166,12101140005.0,12101140005.0,121011400.0,Lane Cove - Greenwich,12101.0,Chatswood - Lane Cove,121.0,Sydney - North Sydney and Hornsby,1.0,1.0,1.0,1.0,,,N1,,,Lane Cove,14700.0,Bennelong,
2452,1630,HORNSBY,NSW,151.099812,-33.707684,HORNSBY POST SHOP,Post Office Boxes,Updated 25-Mar-2020 SA3,12102.0,Hornsby,121.0,Sydney - North Sydney and Hornsby,R1,-33.7046328,151.0987055,12102140524.0,12102157714.0,121021577.0,Hornsby - East,12102.0,Hornsby,121.0,Sydney - North Sydney and Hornsby,1.0,1.0,1.0,1.0,Bradfield,185.289031982422,N1,,,Ku-ring-gai,14500.0,Berowra,
2453,1635,HORNSBY WESTFIELD,NSW,151.101,-33.7046,,,,,,,,R1,-33.7046,151.101,12102140567.0,12102157715.0,121021577.0,Hornsby - East,12102.0,Hornsby,121.0,Sydney - North Sydney and Hornsby,1.0,1.0,1.0,1.0,,,N1,,,Ku-ring-gai,14500.0,Berowra,
2454,1639,FRENCHS FOREST,NSW,151.246751,-33.793137,FRENCHS FOREST DEL FAC,LVR,Updated 25-Mar-2020 SA3,12203.0,Warringah,122.0,Sydney - Northern Beaches,R1,-33.749,151.2331,12203142803.0,12203142803.0,122031428.0,Frenchs Forest - Belrose,12203.0,Warringah,122.0,Sydney - Northern Beaches,1.0,1.0,1.0,1.0,,75.7536315917969,N1,,,Mosman,15350.0,Berowra,
2455,1640,FRENCHS FOREST,NSW,151.246751,-33.793137,FRENCHS FOREST POST SHOP,Post Office Boxes,Updated 25-Mar-2020 SA3,12203.0,Warringah,122.0,Sydney - Northern Beaches,R1,-33.749,151.2331,12203142803.0,12203142803.0,122031428.0,Frenchs Forest - Belrose,12203.0,Warringah,122.0,Sydney - Northern Beaches,1.0,1.0,1.0,1.0,Mackellar,75.7536315917969,N1,,,Mosman,15350.0,Berowra,
2456,1655,MANLY,NSW,151.505125,-33.329799,MANLY POST SHOP,Post Office Boxes,Updated 25-Mar-2020 SA3,12201.0,Manly,122.0,Sydney - Northern Beaches,R1,-33.8060158,151.2947775,12201141939.0,12201141939.0,122011419.0,Manly - Fairlight,12201.0,Manly,122.0,Sydney - Northern Beaches,1.0,1.0,1.0,1.0,Warringah,3.19989109039307,N1,,,Central Coast,11650.0,Mackellar,
2457,1658,MONA VALE,NSW,151.216799,-33.698773,MONA VALE POST SHOP,LVR,Updated 25-Mar-2020 SA3,12202.0,Pittwater,122.0,Sydney - Northern Beaches,R1,-33.67596,151.30653,12202142340.0,12202142340.0,122021423.0,Warriewood - Mona Vale,12202.0,Pittwater,122.0,Sydney - Northern Beaches,1.0,1.0,1.0,1.0,,,N1,,,Northern Beaches,15990.0,Mackellar,
2458,1660,MONA VALE,NSW,151.216799,-33.698773,MONA VALE POST SHOP,Post Office Boxes,Updated 25-Mar-2020 SA3,12202.0,Pittwater,122.0,Sydney - Northern Beaches,R1,-33.67596,151.30653,12202142340.0,12202142340.0,122021423.0,Warriewood - Mona Vale,12202.0,Pittwater,122.0,Sydney - Northern Beaches,1.0,1.0,1.0,1.0,Mackellar,,N1,,,Northern Beaches,15990.0,Mackellar,
24070,1670,NORTH RYDE,NSW,151.12,-33.7932,,Post Office Boxes,Updated 2-Dec-2022,12602.0,Ryde - Hunters Hill,126.0,Sydney - Ryde,R1,-33.7932,151.12,12602150113.0,12602150113.0,126021501.0,North Ryde - East Ryde,12602.0,Ryde - Hunters Hill,126.0,Sydney - Ryde,1.0,1.0,1.0,1.0,Bennelong,,,,,Ryde,16700.0,,
2460,1675,GLADESVILLE,NSW,151.139681,-33.833033,GLADESVILLE POST SHOP,Post Office Boxes,Updated 25-Mar-2020 SA3,12602.0,Ryde - Hunters Hill,126.0,Sydney - Ryde,R1,-33.8301698,151.1267591,12602149818.0,12602149818.0,126021498.0,Gladesville - Huntleys Point,12602.0,Ryde - Hunters Hill,126.0,Sydney - Ryde,1.0,1.0,1.0,1.0,Bennelong,,N1,,,Hunters Hill,14100.0,Mackellar,
2461,1680,RYDE,NSW,151.137807,-33.761498,RYDE POST SHOP,Post Office Boxes,Updated 25-Mar-2020 SA3,12602.0,Ryde - Hunters Hill,126.0,Sydney - Ryde,R1,-33.8157466,151.1030164,12602150211.0,12602159125.0,126021591.0,Ryde,12602.0,Ryde - Hunters Hill,126.0,Sydney - Ryde,1.0,1.0,1.0,1.0,,,N1,,,Ku-ring-gai,14500.0,Mackellar,
2462,1685,WEST RYDE,NSW,151.09064,-33.80406,WEST RYDE POST SHOP,Post Office Boxes,Updated 25-Mar-2020 SA3,12602.0,Ryde - Hunters Hill,126.0,Sydney - Ryde,R1,-33.8067672,151.0824602,12602150312.0,12602150312.0,126021503.0,West Ryde - Meadowbank,12602.0,Ryde - Hunters Hill,126.0,Sydney - Ryde,1.0,1.0,1.0,1.0,,31.9930305480957,N1,,,Ryde,16700.0,Mackellar,
2473,1700,ERMINGTON,NSW,151.206982,-33.950299,ERMINGTON POST SHOP,Post Office Boxes,Updated 25-Mar-2020 SA3,12502.0,Carlingford,125.0,Sydney - Parramatta,R1,-33.8143301,151.0562386,12502147717.0,12502147717.0,125021477.0,Ermington - Rydalmere,12502.0,Carlingford,125.0,Sydney - Parramatta,1.0,1.0,1.0,1.0,,15.3344869613647,N1,,,Randwick,16550.0,Robertson,
